,station_cd,station_g_cd,station_name,station_name_k,station_name_i,line_cd,add,lon,lat,e_sort
1263,1130101,1130101,東京,とうきょう,と,11301,東京都千代田区丸の内一丁目,139.766103,35.681391,1130101
1264,1130102,1130102,新橋,しんばし,し,11301,東京都港区新橋二丁目17,139.758587,35.666195,1130102
1265,1130103,1130103,品川,しながわ,し,11301,東京都港区高輪三丁目26-27,139.738999,35.62876,1130103
1284,1130201,1130201,大崎,おおさき,お,11302,東京都品川区大崎一丁目21-4,139.728439,35.619772,1130201
1285,1130202,1130202,五反田,ごたんだ,ご,11302,東京都品川区東五反田一丁目26,139.723822,35.625974,1130202
1286,1130203,1130203,目黒,めぐろ,め,11302,東京都品川区上大崎二丁目16-9,139.715775,35.633923,1130203
1287,1130204,1130204,恵比寿,えびす,え,11302,東京都渋谷区恵比寿南一丁目5-5,139.71007,35.646685,1130204
1288,1130205,1130205,渋谷,しぶや,し,11302,東京都渋谷区道玄坂一丁目1-1,139.701238,35.658871,1130205
1289,1130206,1130206,原宿,はらじゅく,は,11302,東京都渋谷区神宮前一丁目18,139.702592,35.670646,1130206
1290,1130207,1130207,代々木,よよぎ,よ,11302,東京都渋谷区代々木一丁目34-1,139.702042,35.683061,1130207
1291,1130208,1130208,新宿,しんじゅく,し,11302,東京都新宿区新宿三丁目38-1,139.700464,35.689729,1130208
1292,1130209,1130209,新大久保,しんおおくぼ,し,11302,東京都新宿区百人町一丁目10-15,139.700261,35.700875,1130209
1293,1130210,1130210,高田馬場,たかだのばば,た,11302,東京都新宿区高田馬場一丁目35-1,139.703715,35.712677,1130210
1294,1130211,1130211,目白,めじろ,め,11302,東京都豊島区目白三丁目3-1,139.706228,35.720476,1130211
1295,1130212,1130212,池袋,いけぶくろ,い,11302,東京都豊島区南池袋一丁目28-2,139.711086,35.730256,1130212
1296,1130213,1130213,大塚,おおつか,お,11302,東京都豊島区南大塚三丁目33-1,139.728584,35.731412,1130213
1297,1130214,1130214,巣鴨,すがも,す,11302,東京都豊島区巣鴨一丁目16-1,139.739303,35.733445,1130214
1298,1130215,1130215,駒込,こまごめ,こ,11302,東京都豊島区駒込二丁目1-1,139.748053,35.736825,1130215
1299,1130216,1130216,田端,たばた,た,11302,東京都北区東田端一丁目17-1,139.761229,35.737781,1130216
1300,1130217,1130217,西日暮里,にしにっぽり,に,11302,東京都荒川区西日暮里五丁目22-1,139.766857,35.731954,1130217
1301,1130218,1130218,日暮里,にっぽり,に,11302,東京都荒川区西日暮里二丁目19-1,139.771287,35.727908,1130218
1302,1130219,1130219,鶯谷,うぐいすだに,う,11302,東京都台東区根岸一丁目4-1,139.778015,35.721484,1130219
1303,1130220,1130220,上野,うえの,う,11302,東京都台東区上野七丁目1-1,139.777043,35.71379,1130220
1304,1130221,1130221,御徒町,おかちまち,お,11302,東京都台東区上野五丁目27,139.774727,35.707282,1130221
1305,1130222,1130222,秋葉原,あきはばら,あ,11302,東京都千代田区外神田一丁目17,139.773288,35.698619,1130222
1306,1130223,1130223,神田,かんだ,か,11302,東京都千代田区鍛冶町二丁目13-1,139.770641,35.691173,1130223
1307,1130224,1130101,東京,とうきょう,と,11302,東京都千代田区丸の内一丁目9-1,139.766103,35.681391,1130224
1308,1130225,1130225,有楽町,ゆうらくちょう,ゆ,11302,東京都千代田区有楽町二丁目9,139.763806,35.675441,1130225
1309,1130226,1130102,新橋,しんばし,し,11302,東京都港区新橋二丁目17,139.758587,35.666195,1130226
1310,1130227,1130227,浜松町,はままつちょう,は,11302,東京都港区海岸一丁目3-1,139.757135,35.655391,1130227
1311,1130228,1130228,田町,たまち,た,11302,東京都港区芝五丁目33-36,139.747575,35.645736,1130228
1312,1130229,1130103,品川,しながわ,し,11302,東京都港区高輪三丁目26-26,139.738999,35.62876,1130229
1414,1130801,1130101,東京,とうきょう,と,11308,東京都千代田区丸の内一丁目,139.766103,35.681391,1130801
1415,1130802,1130102,新橋,しんばし,し,11308,東京都港区新橋二丁目17,139.758587,35.666195,1130802
1416,1130803,1130103,品川,しながわ,し,11308,東京都港区高輪三丁目26-26,139.738999,35.62876,1130803
1417,1130804,1130804,西大井,にしおおい,に,11308,品川区西大井１丁目,139.721729,35.601616,1130804
1451,1131101,1130101,東京,とうきょう,と,11311,東京都千代田区丸の内一丁目,139.766103,35.681391,1131101
1452,1131102,1131102,四ツ谷,よつや,よ,11311,東京都新宿区四谷一丁目,139.730644,35.686041,1131102
1453,1131103,1130208,新宿,しんじゅく,し,11311,東京都新宿区新宿三丁目38-1,139.700464,35.689729,1131103
1504,1131201,1130101,東京,とうきょう,と,11312,東京都千代田区丸の内一丁目,139.766103,35.681391,1131201
1505,1131202,1130223,神田,かんだ,か,11312,東京都千代田区鍛冶町二丁目13-1,139.770641,35.691173,1131202
1506,1131203,1131203,御茶ノ水,おちゃのみず,お,11312,千代田区神田駿河台２丁目,139.764955,35.699605,1131203
1507,1131207,1131102,四ツ谷,よつや,よ,11312,東京都新宿区四谷一丁目,139.730644,35.686041,1131207
1508,1131211,1130208,新宿,しんじゅく,し,11312,東京都新宿区新宿三丁目38-1,139.700464,35.689729,1131211
1509,1131214,1131214,中野,なかの,な,11312,中野区中野５丁目,139.665835,35.705765,1131214
1510,1131215,1131215,高円寺,こうえんじ,こ,11312,杉並区高円寺南４丁目,139.649664,35.705326,1131215
1511,1131216,1131216,阿佐ケ谷,あさがや,あ,11312,東京都杉並区阿佐谷南三丁目36-3,139.635868,35.704818,1131216
1512,1131217,1131217,荻窪,おぎくぼ,お,11312,杉並区上荻１丁目,139.620109,35.704523,1131217
1513,1131218,1131218,西荻窪,にしおぎくぼ,に,11312,杉並区西荻南３丁目,139.599361,35.703842,1131218
1530,1131303,1131218,西荻窪,にしおぎくぼ,に,11313,杉並区西荻南３丁目,139.599361,35.703842,1131303
1531,1131304,1131217,荻窪,おぎくぼ,お,11313,杉並区上荻１丁目,139.620109,35.704523,1131304
1532,1131305,1131216,阿佐ケ谷,あさがや,あ,11313,東京都杉並区阿佐谷南三丁目36-2,139.635868,35.704818,1131305
1533,1131306,1131215,高円寺,こうえんじ,こ,11313,杉並区高円寺南４丁目,139.649664,35.705326,1131306
1534,1131307,1131214,中野,なかの,な,11313,中野区中野５丁目,139.665835,35.705765,1131307
1535,1131308,1131308,東中野,ひがしなかの,ひ,11313,中野区東中野４丁目,139.684436,35.706529,1131308
1536,1131309,1131309,大久保,おおくぼ,お,11313,新宿区百人町１丁目,139.69732,35.700784,1131309
1537,1131310,1130208,新宿,しんじゅく,し,11313,東京都新宿区新宿三丁目38-1,139.700464,35.689729,1131310
1538,1131311,1130207,代々木,よよぎ,よ,11313,東京都渋谷区代々木一丁目34-1,139.702042,35.683061,1131311
1539,1131312,1131312,千駄ケ谷,せんだがや,せ,11313,東京都渋谷区千駄ヶ谷一丁目35-10,139.711644,35.681231,1131312
1540,1131313,1131313,信濃町,しなのまち,し,11313,新宿区信濃町,139.720729,35.680031,1131313
1541,1131314,1131102,四ツ谷,よつや,よ,11313,東京都新宿区四谷一丁目,139.730644,35.686041,1131314
1542,1131315,1131315,市ケ谷,いちがや,い,11313,東京都新宿区市谷田町一丁目1,139.735241,35.691105,1131315
1543,1131316,1131316,飯田橋,いいだばし,い,11313,東京都千代田区飯田橋四丁目10-2,139.745143,35.701835,1131316
1544,1131317,1131317,水道橋,すいどうばし,す,11313,千代田区三崎町２丁目,139.754312,35.702039,1131317
1545,1131318,1131203,御茶ノ水,おちゃのみず,お,11313,千代田区神田駿河台２丁目,139.764955,35.699605,1131318
1546,1131319,1130222,秋葉原,あきはばら,あ,11313,東京都千代田区外神田一丁目17-6,139.773288,35.698619,1131319
1547,1131320,1131320,浅草橋,あさくさばし,あ,11313,台東区浅草橋１丁目,139.784427,35.697403,1131320
1548,1131321,1131321,両国,りょうごく,り,11313,墨田区横網１丁目,139.793334,35.69579,1131321
1549,1131322,1131322,錦糸町,きんしちょう,き,11313,墨田区江東橋３丁目,139.814136,35.696802,1131322
1550,1131323,1131323,亀戸,かめいど,か,11313,江東区亀戸５丁目,139.826262,35.697345,1131323
1551,1131324,1131324,平井,ひらい,ひ,11313,江戸川区平井３丁目,139.842181,35.70643,1131324
1552,1131325,1131325,新小岩,しんこいわ,し,11313,葛飾区新小岩１丁目,139.857777,35.716903,1131325
1553,1131326,1131326,小岩,こいわ,こ,11313,江戸川区南小岩７丁目,139.881755,35.733207,1131326
1567,1131401,1130101,東京,とうきょう,と,11314,東京都千代田区丸の内一丁目,139.766103,35.681391,1131401
1568,1131402,1131402,新日本橋,しんにほんばし,し,11314,中央区日本橋室町４丁目,139.77323,35.688687,1131402
1569,1131403,1131403,馬喰町,ばくろちょう,ば,11314,中央区日本橋馬喰町１丁目,139.78238,35.693365,1131403
1570,1131404,1131322,錦糸町,きんしちょう,き,11314,墨田区江東橋３丁目,139.814136,35.696802,1131404
1571,1131405,1131325,新小岩,しんこいわ,し,11314,葛飾区新小岩１丁目,139.857777,35.716903,1131405
1655,1131901,1130220,上野,うえの,う,11319,東京都台東区上野七丁目1-1,139.777043,35.71379,1131901
1656,1131902,1131902,尾久,おく,お,11319,北区昭和町１丁目,139.753846,35.74683,1131902
1657,1131903,1131903,赤羽,あかばね,あ,11319,北区赤羽１丁目,139.720928,35.778026,1131903
1688,1132001,1130220,上野,うえの,う,11320,東京都台東区上野七丁目1-1,139.777043,35.71379,1132001
1689,1132002,1130218,日暮里,にっぽり,に,11320,東京都荒川区西日暮里二丁目,139.771287,35.727908,1132002
1690,1132003,1132003,三河島,みかわしま,み,11320,荒川区西日暮里１丁目,139.777131,35.733383,1132003
1691,1132004,1132004,南千住,みなみせんじゅ,み,11320,荒川区南千住４丁目,139.7994,35.734033,1132004
1692,1132005,1132005,北千住,きたせんじゅ,き,11320,足立区千住旭町,139.804872,35.749677,1132005
1693,1132006,1132006,綾瀬,あやせ,あ,11320,足立区綾瀬３丁目,139.825019,35.762222,1132006
1694,1132007,1132007,亀有,かめあり,か,11320,葛飾区亀有３,139.847573,35.766527,1132007
1695,1132008,1132008,金町,かなまち,か,11320,葛飾区金町６丁目,139.870482,35.769582,1132008
1776,1132101,1130201,大崎,おおさき,お,11321,東京都品川区大崎一丁目21-4,139.728439,35.619772,1132101
1777,1132102,1130204,恵比寿,えびす,え,11321,東京都渋谷区恵比寿南一丁目5-5,139.71007,35.646685,1132102
1778,1132103,1130205,渋谷,しぶや,し,11321,東京都渋谷区道玄坂一丁目1-1,139.701238,35.658871,1132103
1779,1132104,1130208,新宿,しんじゅく,し,11321,東京都新宿区新宿三丁目38-1,139.700464,35.689729,1132104
1780,1132105,1130212,池袋,いけぶくろ,い,11321,東京都豊島区,139.711086,35.730256,1132105
1781,1132106,1132106,板橋,いたばし,い,11321,板橋区板橋１丁目,139.719507,35.745435,1132106
1782,1132107,1132107,十条,じゅうじょう,じ,11321,北区上十条１丁目,139.722233,35.760321,1132107
1783,1132108,1131903,赤羽,あかばね,あ,11321,北区赤羽１丁目,139.720928,35.778026,1132108
1784,1132109,1132109,北赤羽,きたあかばね,き,11321,北区赤羽北２丁目,139.70569,35.787007,1132109
1785,1132110,1132110,浮間舟渡,うきまふなど,う,11321,北区浮間４丁目,139.691341,35.791209,1132110
1810,1132301,1130220,上野,うえの,う,11323,東京都台東区上野七丁目1-1,139.777043,35.71379,1132301
1811,1132302,1131902,尾久,おく,お,11323,北区昭和町１丁目,139.753846,35.74683,1132302
1812,1132303,1131903,赤羽,あかばね,あ,11323,北区赤羽１丁目,139.720928,35.778026,1132303
1893,1132601,1130101,東京,とうきょう,と,11326,東京都千代田区丸の内一丁目,139.766103,35.681391,1132601
1894,1132602,1132602,八丁堀,はっちょうぼり,は,11326,中央区八丁堀３丁目,139.777705,35.674617,1132602
1895,1132603,1132603,越中島,えっちゅうじま,え,11326,江東区越中島２丁目,139.792713,35.667946,1132603
1896,1132604,1132604,潮見,しおみ,し,11326,江東区潮見２丁目,139.817341,35.658702,1132604
1897,1132605,1132605,新木場,しんきば,し,11326,東京都江東区新木場一丁目5,139.827402,35.646172,1132605
1898,1132606,1132606,葛西臨海公園,かさいりんかいこうえん,か,11326,江戸川区臨海町６丁目,139.861529,35.644392,1132606
1944,1132805,1130212,池袋,いけぶくろ,い,11328,東京都豊島区南池袋一丁目28-2,139.711086,35.730256,1132805
1945,1132806,1130208,新宿,しんじゅく,し,11328,東京都新宿区新宿三丁目38-1,139.700464,35.689729,1132806
1952,1132807,1130205,渋谷,しぶや,し,11328,東京都渋谷区道玄坂一丁目1-1,139.701238,35.658871,1132807
1953,1132808,1130103,品川,しながわ,し,11328,東京都港区高輪三丁目26-26,139.738999,35.62876,1132808
1954,1132809,1130101,東京,とうきょう,と,11328,東京都千代田区丸の内一丁目,139.766103,35.681391,1132809
1995,1133210,1131903,赤羽,あかばね,あ,11332,北区赤羽１丁目,139.720928,35.778026,1133210
1996,1133211,1133211,東十条,ひがしじゅうじょう,ひ,11332,北区東十条３丁目,139.726858,35.763803,1133211
1997,1133212,1133212,王子,おうじ,お,11332,北区王子１丁目,139.73809,35.752538,1133212
1998,1133213,1133213,上中里,かみなかざと,か,11332,北区上中里１丁目,139.745769,35.74728,1133213
1999,1133214,1130216,田端,たばた,た,11332,東京都北区東田端一丁目17-1,139.761229,35.737781,1133214
2000,1133215,1130217,西日暮里,にしにっぽり,に,11332,東京都荒川区西日暮里五丁目22-1,139.766857,35.731954,1133215
2001,1133216,1130218,日暮里,にっぽり,に,11332,東京都荒川区西日暮里二丁目,139.771287,35.727908,1133216
2002,1133217,1130219,鶯谷,うぐいすだに,う,11332,東京都台東区根岸一丁目4-1,139.778015,35.721484,1133217
2003,1133218,1130220,上野,うえの,う,11332,東京都台東区上野七丁目1-1,139.777043,35.71379,1133218
2004,1133219,1130221,御徒町,おかちまち,お,11332,東京都台東区上野五丁目27,139.774727,35.707282,1133219
2005,1133220,1130222,秋葉原,あきはばら,あ,11332,東京都千代田区外神田一丁目17-6,139.773288,35.698619,1133220
2006,1133221,1130223,神田,かんだ,か,11332,東京都千代田区鍛冶町二丁目13-1,139.770641,35.691173,1133221
2007,1133222,1130101,東京,とうきょう,と,11332,東京都千代田区丸の内一丁目,139.766103,35.681391,1133222
2008,1133223,1130225,有楽町,ゆうらくちょう,ゆ,11332,東京都千代田区有楽町二丁目9-17,139.763806,35.675441,1133223
2009,1133224,1130102,新橋,しんばし,し,11332,東京都港区新橋二丁目17,139.758587,35.666195,1133224
2010,1133225,1130227,浜松町,はままつちょう,は,11332,東京都港区海岸一丁目3-1,139.757135,35.655391,1133225
2011,1133226,1130228,田町,たまち,た,11332,東京都港区芝五丁目33-36,139.747575,35.645736,1133226
2012,1133227,1130103,品川,しながわ,し,11332,東京都港区高輪三丁目26-26,139.738999,35.62876,1133227
2013,1133228,1133228,大井町,おおいまち,お,11332,品川区大井１丁目,139.73485,35.606257,1133228
2014,1133229,1133229,大森,おおもり,お,11332,大田区大森北１丁目,139.728079,35.588903,1133229
2015,1133230,1133230,蒲田,かまた,か,11332,大田区蒲田５丁目,139.716032,35.562517,1133230
2034,1133302,1131903,赤羽,あかばね,あ,11333,北区赤羽１丁目,139.720928,35.778026,1133302
2035,1133303,1130212,池袋,いけぶくろ,い,11333,東京都豊島区南池袋一丁目28-2,139.711086,35.730256,1133303
2036,1133304,1130208,新宿,しんじゅく,し,11333,東京都新宿区新宿三丁目38-1,139.700464,35.689729,1133304
2037,1133305,1130205,渋谷,しぶや,し,11333,東京都渋谷区道玄坂一丁目1-1,139.701238,35.658871,1133305
2038,1133306,1130204,恵比寿,えびす,え,11333,東京都渋谷区恵比寿南一丁目5-5,139.71007,35.646685,1133306
2039,1133307,1130201,大崎,おおさき,お,11333,東京都品川区大崎一丁目21-4,139.728439,35.619772,1133307
2040,1133308,1130804,西大井,にしおおい,に,11333,品川区西大井１丁目,139.721729,35.601616,1133308
2209,1134301,1130101,東京,とうきょう,と,11343,東京都千代田区丸の内一丁目9-1,139.766103,35.681391,1134301
2210,1134302,1130220,上野,うえの,う,11343,東京都台東区上野七丁目1-1,139.777043,35.71379,1134302
5068,2100101,1130212,池袋,いけぶくろ,い,21001,東京都豊島区西池袋一丁目1-21,139.710678,35.730924,2100101
5069,2100102,2100102,北池袋,きたいけぶくろ,き,21001,豊島区池袋本町１-３６-６,139.716749,35.741283,2100102
5070,2100103,2100103,下板橋,しもいたばし,し,21001,豊島区池袋本町４-４３-１１,139.714785,35.745721,2100103
5071,2100104,2100104,大山,おおやま,お,21001,板橋区大山町４-１,139.702589,35.748398,2100104
5072,2100105,2100105,中板橋,なかいたばし,な,21001,板橋区弥生町３３-１,139.694628,35.756214,2100105
5073,2100106,2100106,ときわ台,ときわだい,と,21001,板橋区常盤台１-４３-１,139.689015,35.758771,2100106
5074,2100107,2100107,上板橋,かみいたばし,か,21001,板橋区上板橋２-３６-７,139.67641,35.763596,2100107
5075,2100108,2100108,東武練馬,とうぶねりま,と,21001,板橋区徳丸２-２-１４,139.661964,35.768698,2100108
5076,2100109,2100109,下赤塚,しもあかつか,し,21001,板橋区赤塚新町１-２３-１,139.644482,35.770558,2100109
5077,2100110,2100110,成増,なります,な,21001,板橋区成増２-１３-１,139.632708,35.777723,2100110
5106,2100201,2100201,浅草,あさくさ,あ,21002,東京都台東区花川戸一丁目4-1,139.798214,35.711883,2100201
5107,2100202,2100202,とうきょうスカイツリー,とうきょうすかいつりー,と,21002,墨田区押上１丁目,139.809332,35.71043,2100202
5108,2100203,2100203,押上〈スカイツリー前〉,おしあげ すかいつりーまえ,お,21002,墨田区押上一丁目,139.812935,35.710702,2100203
5109,2100204,2100204,曳舟,ひきふね,ひ,21002,墨田区東向島２丁目,139.816634,35.718418,2100204
5110,2100205,2100205,東向島,ひがしむこうじま,ひ,21002,墨田区東向島４丁目,139.819306,35.724324,2100205
5111,2100206,2100206,鐘ヶ淵,かねがふち,か,21002,東京都墨田区墨田5丁目,139.820344,35.733712,2100206
5112,2100207,2100207,堀切,ほりきり,ほ,21002,足立区千住曙町,139.817727,35.742977,2100207
5113,2100208,2100208,牛田,うしだ,う,21002,足立区千住曙町,139.811816,35.744555,2100208
5114,2100209,1132005,北千住,きたせんじゅ,き,21002,足立区千住旭町,139.805564,35.749891,2100209
5115,2100210,2100210,小菅,こすげ,こ,21002,足立区足立２丁目,139.812935,35.759039,2100210
5116,2100211,2100211,五反野,ごたんの,ご,21002,足立区足立３丁目,139.809643,35.765852,2100211
5117,2100212,2100212,梅島,うめじま,う,21002,足立区梅田７丁目,139.797916,35.772437,2100212
5118,2100213,2100213,西新井,にしあらい,に,21002,足立区西新井栄町２丁目,139.790372,35.777323,2100213
5119,2100214,2100214,竹ノ塚,たけのづか,た,21002,足立区竹の塚６丁目,139.790788,35.794368,2100214
5222,2100501,2100204,曳舟,ひきふね,ひ,21005,墨田区東向島２丁目,139.816634,35.718418,2100501
5223,2100502,2100502,小村井,おむらい,お,21005,墨田区文花２-２０-１,139.827595,35.710316,2100502
5224,2100503,2100503,東あずま,ひがしあずま,ひ,21005,墨田区立花４-２３-８,139.831883,35.707067,2100503
5225,2100504,2100504,亀戸水神,かめいどすいじん,か,21005,江東区亀戸８-５-１,139.833422,35.699976,2100504
5226,2100505,1131323,亀戸,かめいど,か,21005,江東区亀戸５丁目,139.826791,35.697708,2100505
5227,2100601,2100213,西新井,にしおおい,に,21006,足立区西新井栄町２丁目,139.790372,35.777323,2100601
5228,2100602,2100602,大師前,だいしまえ,だ,21006,足立区西新井１-３-１,139.781647,35.778989,2100602
5285,2200101,1130212,池袋,いけぶくろ,い,22001,東京都豊島区南池袋一丁目28-2,139.711461,35.72913,2200101
5286,2200102,2200102,椎名町,しいなまち,し,22001,豊島区長崎１-１-２２,139.694363,35.726572,2200102
5287,2200103,2200103,東長崎,ひがしながさき,ひ,22001,豊島区長崎５-１-１,139.683294,35.73003,2200103
5288,2200104,2200104,江古田,えごた,え,22001,練馬区旭丘１-７８-７,139.672814,35.737557,2200104
5289,2200105,2200105,桜台,さくらだい,さ,22001,練馬区桜台１-５-１,139.662602,35.738797,2200105
5290,2200106,2200106,練馬,ねりま,ね,22001,練馬区練馬１-３-５,139.654368,35.737893,2200106
5291,2200107,2200107,中村橋,なかむらばし,な,22001,練馬区中村北４-２-１,139.637456,35.736767,2200107
5292,2200108,2200108,富士見台,ふじみだい,ふ,22001,練馬区貫井３-７-４,139.62969,35.735867,2200108
5293,2200109,2200109,練馬高野台,ねりまたかのだい,ね,22001,練馬区高野台１-７-２７,139.616749,35.740622,2200109
5294,2200110,2200110,石神井公園,しゃくじいこうえん,し,22001,練馬区石神井町３-２３-１０,139.606981,35.743563,2200110
5295,2200111,2200111,大泉学園,おおいずみがくえん,お,22001,練馬区東大泉１-２９-７,139.586732,35.749406,2200111
5327,2200301,2200301,小竹向原,こたけむかいはら,こ,22003,東京都練馬区小竹町二丁目16-15,139.678572,35.743803,2200301
5328,2200302,2200302,新桜台,しんさくらだい,し,22003,練馬区桜台１-２８-１１,139.6683,35.74077,2200302
5329,2200303,2200106,練馬,ねりま,ね,22003,練馬区練馬１-３-５,139.654368,35.737893,2200303
5330,2200401,2200106,練馬,ねりま,ね,22004,練馬区練馬１-３-５,139.654368,35.737893,2200401
5331,2200402,2200402,豊島園,としまえん,と,22004,練馬区練馬４-１６-５,139.647979,35.742054,2200402
5338,2200701,2200701,西武新宿,せいぶしんじゅく,せ,22007,新宿区歌舞伎町１-３０-１,139.7,35.696254,2200701
5339,2200702,1130210,高田馬場,たかだのばば,た,22007,東京都新宿区高田馬場一丁目35-2,139.703715,35.712677,2200702
5340,2200703,2200703,下落合,しもおちあい,し,22007,新宿区下落合１-１６-１,139.695391,35.715846,2200703
5341,2200704,2200704,中井,なかい,な,22007,新宿区中落合１-１９-１,139.686967,35.715106,2200704
5342,2200705,2200705,新井薬師前,あらいやくしまえ,あ,22007,中野区上高田５-４３-２０,139.672582,35.715778,2200705
5343,2200706,2200706,沼袋,ぬまぶくろ,ぬ,22007,中野区沼袋１-３５-１,139.663841,35.719458,2200706
5344,2200707,2200707,野方,のがた,の,22007,中野区野方６-３-３,139.652733,35.719658,2200707
5345,2200708,2200708,都立家政,とりつかせい,と,22007,中野区鷺宮１-１６-１,139.644839,35.722313,2200708
5346,2200709,2200709,鷺ノ宮,さぎのみや,さ,22007,中野区鷺宮３-１５-１,139.63892,35.722605,2200709
5347,2200710,2200710,下井草,しもいぐさ,し,22007,杉並区下井草２-４４-１０,139.624688,35.723852,2200710
5348,2200711,2200711,井荻,いおぎ,い,22007,杉並区下井草５-２３-１５,139.615303,35.72469,2200711
5349,2200712,2200712,上井草,かみいぐさ,か,22007,杉並区上井草３-３２-１,139.602937,35.725326,2200712
5350,2200713,2200713,上石神井,かみしゃくじい,か,22007,練馬区上石神井１-２-４５,139.592266,35.726189,2200713
5351,2200714,2200714,武蔵関,むさしせき,む,22007,練馬区関町北２-２９-１,139.576417,35.7276,2200714
5395,2300101,2300101,京成上野,けいせいうえの,け,23001,東京都台東区上野公園1-60,139.773571,35.711232,2300101
5396,2300102,1130218,日暮里,にっぽり,に,23001,東京都荒川区西日暮里二丁目,139.771287,35.727908,2300102
5397,2300103,2300103,新三河島,しんみかわしま,し,23001,荒川区西日暮里６-２-１,139.773834,35.73714,2300103
5398,2300104,2300104,町屋,まちや,ま,23001,荒川区町屋１丁目,139.781499,35.742354,2300104
5399,2300105,2300105,千住大橋,せんじゅおおはし,せ,23001,足立区千住橋戸町１１-１,139.796934,35.74243,2300105
5400,2300106,2100208,京成関屋,けいせいせきや,け,23001,足立区千住曙町２-２,139.81183,35.744008,2300106
5401,2300107,2300107,堀切菖蒲園,ほりきりしょうぶえん,ほ,23001,葛飾区堀切５-１-１,139.827545,35.747649,2300107
5402,2300108,2300108,お花茶屋,おはなぢゃや,お,23001,葛飾区宝町２-３７-１,139.83988,35.747585,2300108
5403,2300109,2300109,青砥,あおと,あ,23001,東京都葛飾区青戸三丁目36番1号,139.856292,35.745883,2300109
5404,2300110,2300110,京成高砂,けいせいたかさご,け,23001,東京都葛飾区高砂五丁目28-1,139.866875,35.750932,2300110
5405,2300111,2300111,京成小岩,けいせいこいわ,け,23001,江戸川区北小岩２-１０-９,139.88371,35.742158,2300111
5406,2300112,2300112,江戸川,えどがわ,え,23001,江戸川区北小岩３-２４-１５,139.896226,35.737723,2300112
5438,2300201,2100203,押上（スカイツリー前）,おしあげ すかいつりーまえ,お,23002,墨田区押上一丁目,139.812935,35.710702,2300201
5439,2300202,2300202,京成曳舟,けいせいひきふね,け,23002,墨田区京島１-３９-１,139.820012,35.718441,2300202
5440,2300203,2300203,八広,やひろ,や,23002,墨田区八広６-２５-２０,139.828738,35.727687,2300203
5441,2300204,2300204,四ツ木,よつぎ,よ,23002,葛飾区四つ木１-１-１,139.834918,35.731962,2300204
5442,2300205,2300205,京成立石,けいせいたていし,け,23002,葛飾区立石４-２４-１,139.848558,35.738281,2300205
5443,2300206,2300109,青砥,あおと,あ,23002,東京都葛飾区青戸三丁目36番1号,139.856292,35.745883,2300206
5444,2300207,2300110,京成高砂,けいせいたかさご,け,23002,東京都葛飾区高砂五丁目28-1,139.866875,35.750932,2300207
5445,2300301,2300110,京成高砂,けいせいたかさご,け,23003,東京都葛飾区高砂五丁目28-1,139.866875,35.750932,2300301
5446,2300302,2300302,柴又,しばまた,し,23003,葛飾区柴又４-８-１４,139.875188,35.756323,2300302
5447,2300303,1132008,京成金町,けいせいかなまち,け,23003,葛飾区金町５-３７-９,139.870387,35.768471,2300303
5464,2300601,2300101,京成上野,けいせいうえの,け,23006,東京都台東区上野公園1-60,139.773571,35.711232,2300601
5465,2300602,1130218,日暮里,にっぽり,に,23006,東京都荒川区西日暮里二丁目19-1,139.771287,35.727908,2300602
5466,2300603,2300109,青砥,あおと,あ,23006,東京都葛飾区青戸三丁目36番1号,139.856292,35.745883,2300603
5467,2300604,2300110,京成高砂,けいせいたかさご,け,23006,東京都葛飾区高砂五丁目28-1,139.866875,35.750932,2300604
5475,2400101,1130208,新宿,しんじゅく,し,24001,東京都新宿区西新宿一丁目1-4,139.699187,35.690163,2400101
5476,2400102,2400102,初台,はつだい,は,24001,渋谷区初台１-５３-７,139.686354,35.68123,2400102
5477,2400103,2400103,幡ヶ谷,はたがや,は,24001,東京都渋谷区幡ヶ谷一丁目,139.676183,35.677061,2400103
5478,2400104,2400104,笹塚,ささづか,さ,24001,渋谷区笹塚１-５６-７,139.667251,35.673758,2400104
5479,2400105,2400105,代田橋,だいたばし,だ,24001,世田谷区大原２-１８-９,139.659413,35.671092,2400105
5480,2400106,2400106,明大前,めいだいまえ,め,24001,世田谷区松原２-４５-１,139.650352,35.668758,2400106
5481,2400107,2400107,下高井戸,しもたかいど,し,24001,世田谷区松原３-２９-１７,139.641372,35.66615,2400107
5482,2400108,2400108,桜上水,さくらじょうすい,さ,24001,世田谷区桜上水５-２９-５２,139.63129,35.66768,2400108
5483,2400109,2400109,上北沢,かみきたざわ,か,24001,世田谷区上北沢４-１４-３,139.62329,35.668857,2400109
5484,2400110,2400110,八幡山,はちまんやま,は,24001,杉並区上高井戸１-１-１１,139.614927,35.669982,2400110
5485,2400111,2400111,芦花公園,ろかこうえん,ろ,24001,世田谷区南烏山３-１-１６,139.608247,35.670479,2400111
5486,2400112,2400112,千歳烏山,ちとせからすやま,ち,24001,世田谷区南烏山６-１-１,139.60067,35.667921,2400112
5532,2400601,1130205,渋谷,しぶや,し,24006,東京都渋谷区道玄坂一丁目4-1,139.700872,35.6587,2400601
5533,2400701,1130208,新線新宿,しんせんしんじゅく,し,24007,東京都新宿区西新宿一丁目18,139.698812,35.68869,2400601
5534,2400602,2400602,神泉,しんせん,し,24006,渋谷区神泉町４-６,139.693579,35.657244,2400602
5535,2400603,2400603,駒場東大前,こまばとうだいまえ,こ,24006,目黒区駒場３-９-１,139.684308,35.65868,2400603
5536,2400604,2400604,池ノ上,いけのうえ,い,24006,世田谷区代沢２-４３-８,139.67344,35.660402,2400604
5537,2400704,2400104,笹塚,ささづか,さ,24007,渋谷区笹塚１-５６-７,139.667251,35.673758,2400604
5538,2400605,2400605,下北沢,しもきたざわ,し,24006,世田谷区北沢２丁目,139.66691,35.661539,2400605
5539,2400606,2400606,新代田,しんだいた,し,24006,世田谷区代田５-３０-１８,139.660524,35.662593,2400606
5540,2400607,2400607,東松原,ひがしまつばら,ひ,24006,世田谷区松原５-２-６,139.655535,35.662634,2400607
5541,2400608,2400106,明大前,めいだいまえ,め,24006,世田谷区松原２-４５-１,139.650352,35.668758,2400608
5542,2400609,2400609,永福町,えいふくちょう,え,24006,杉並区永福２-６０-３１,139.642733,35.67629,2400609
5543,2400610,2400610,西永福,にしえいふくえき,に,24006,杉並区永福３-３６-１,139.634936,35.678918,2400610
5544,2400611,2400611,浜田山,はまだやま,は,24006,杉並区浜田山３-３１-２,139.627528,35.681603,2400611
5545,2400612,2400612,高井戸,たかいど,た,24006,杉並区高井戸西２-１-２６,139.615115,35.683253,2400612
5546,2400613,2400613,富士見ヶ丘,ふじみがおか,ふ,24006,東京都杉並区久我山五丁目1番25号,139.607072,35.684805,2400613
5547,2400614,2400614,久我山,くがやま,く,24006,杉並区久我山４-１-１１,139.599211,35.688138,2400614
5551,2400702,2400102,初台,はつだい,は,24007,渋谷区初台１-５３-７,139.686354,35.68123,2400702
5552,2400703,2400103,幡ヶ谷,はたがや,は,24007,東京都渋谷区幡ヶ谷一丁目,139.676183,35.677061,2400703
5553,2500101,1130208,新宿,しんじゅく,し,25001,東京都新宿区西新宿一丁目1-3,139.699574,35.691435,2500101
5554,2500102,2500102,南新宿,みなみしんじゅく,み,25001,渋谷区代々木２丁目,139.69867,35.683483,2500102
5555,2500103,2500103,参宮橋,さんぐうばし,さ,25001,渋谷区代々木４丁目,139.693568,35.678586,2500103
5556,2500104,2500104,代々木八幡,よよぎはちまん,よ,25001,渋谷区代々木５丁目,139.688913,35.669715,2500104
5557,2500105,2500105,代々木上原,よよぎうえはら,よ,25001,渋谷区西原３丁目,139.680153,35.669159,2500105
5558,2500106,2500106,東北沢,ひがしきたざわ,ひ,25001,世田谷区北沢３丁目,139.673014,35.665379,2500106
5559,2500107,2400605,下北沢,しもきたざわ,し,25001,世田谷区北沢２丁目,139.667516,35.661655,2500107
5560,2500108,2500108,世田谷代田,せたがやだいた,せ,25001,世田谷区代田２丁目,139.661557,35.65834,2500108
5561,2500109,2500109,梅ヶ丘,うめがおか,う,25001,東京都世田谷区梅丘,139.653628,35.656024,2500109
5562,2500110,2500110,豪徳寺,ごうとくじ,ご,25001,世田谷区豪徳寺１丁目,139.647381,35.653807,2500110
5563,2500111,2500111,経堂,きょうどう,き,25001,世田谷区経堂１丁目,139.635993,35.650991,2500111
5564,2500112,2500112,千歳船橋,ちとせふなばし,ち,25001,世田谷区船橋１丁目,139.624544,35.647616,2500112
5565,2500113,2500113,祖師ヶ谷大蔵,そしがやおおくら,そ,25001,東京都世田谷区祖師谷1丁目,139.609659,35.643236,2500113
5566,2500114,2500114,成城学園前,せいじょうがくえんまえ,せ,25001,世田谷区成城６丁目,139.598958,35.640114,2500114
5567,2500115,2500115,喜多見,きたみ,き,25001,世田谷区喜多見９丁目,139.587445,35.636697,2500115
5625,2600101,1130205,渋谷,しぶや,し,26001,東京都渋谷区渋谷二丁目24-1,139.702417,35.659545,2600101
5626,2600102,2600102,代官山,だいかんやま,だ,26001,渋谷区代官山町１９-４,139.703284,35.648193,2600102
5627,2600103,2600103,中目黒,なかめぐろ,な,26001,目黒区上目黒３-４-１,139.698621,35.643854,2600103
5628,2600104,2600104,祐天寺,ゆうてんじ,ゆ,26001,目黒区祐天寺２-１３-３,139.690758,35.637163,2600104
5629,2600105,2600105,学芸大学,がくげいだいがく,が,26001,目黒区鷹番３-２-１,139.68522,35.628786,2600105
5630,2600106,2600106,都立大学,とりつだいがく,と,26001,目黒区中根１-５-１,139.676393,35.617835,2600106
5631,2600107,2600107,自由が丘,じゆうがおか,じ,26001,目黒区自由が丘１-３０-１,139.668664,35.607224,2600107
5632,2600108,2600108,田園調布,でんえんちょうふ,で,26001,大田区田園調布３-２５-１８,139.667356,35.596815,2600108
5633,2600109,2600109,多摩川,たまがわ,た,26001,大田区田園調布１-５３-８,139.668723,35.589591,2600109
5646,2600201,1130203,目黒,めぐろ,め,26002,東京都品川区上大崎四丁目2-1,139.7155,35.633272,2600201
5647,2600202,2600202,不動前,ふどうまえ,ふ,26002,品川区西五反田５-１２-１,139.71469,35.626526,2600202
5648,2600203,2600203,武蔵小山,むさしこやま,む,26002,品川区小山３-４-８,139.704524,35.620538,2600203
5649,2600204,2600204,西小山,にしこやま,に,26002,品川区小山６-３-１０,139.698694,35.615455,2600204
5650,2600205,2600205,洗足,せんぞく,せ,26002,目黒区洗足２-２１-１,139.694367,35.61043,2600205
5651,2600206,2600206,大岡山,おおおかやま,お,26002,大田区北千束３-２７-１,139.685909,35.607456,2600206
5652,2600207,2600207,奥沢,おくさわ,お,26002,世田谷区奥沢３-４７-１７,139.672355,35.603947,2600207
5653,2600208,2600108,田園調布,でんえんちょうふ,で,26002,大田区田園調布３-２５-１８,139.667356,35.596815,2600208
5654,2600209,2600109,多摩川,たまがわ,た,26002,大田区田園調布１-５３-８,139.668723,35.589591,2600209
5659,2600301,1130205,渋谷,しぶや,し,26003,東京都渋谷区道玄坂二丁目1-1,139.702148,35.65802,2600301
5660,2600302,2600302,池尻大橋,いけじりおおはし,い,26003,世田谷区池尻３-２,139.684319,35.650603,2600302
5661,2600303,2600303,三軒茶屋,さんげんぢゃや,さ,26003,世田谷区太子堂４-２１-１,139.670156,35.643716,2600303
5662,2600304,2600304,駒沢大学,こまざわだいがく,こ,26003,世田谷区上馬４-３,139.661702,35.633471,2600304
5663,2600305,2600305,桜新町,さくらしんまち,さ,26003,世田谷区桜新町２-８,139.644779,35.631666,2600305
5664,2600306,2600306,用賀,ようが,よ,26003,世田谷区用賀２-３９,139.633928,35.626436,2600306
5665,2600307,2600307,二子玉川,にこたまがわ,に,26003,世田谷区玉川２-２２-１３,139.626685,35.611788,2600307
5686,2600401,1133228,大井町,おおいまち,お,26004,品川区大井１丁目,139.735025,35.607535,2600401
5687,2600402,2600402,下神明,しもしんめい,し,26004,品川区西品川１-２９-６,139.726256,35.608704,2600402
5688,2600403,2600403,戸越公園,とごしこうえん,と,26004,品川区戸越５-１０-１５,139.718159,35.608856,2600403
5689,2600404,2600404,中延,なかのぶ,な,26004,品川区中延４-５-５,139.712526,35.60571,2600404
5690,2600405,2600405,荏原町,えばらまち,え,26004,品川区中延５-２-１,139.707571,35.60382,2600405
5691,2600406,2600406,旗の台,はたのだい,は,26004,品川区旗の台２-１３-１,139.702286,35.604923,2600406
5692,2600407,2600407,北千束,きたせんぞく,き,26004,大田区北千束２-１６-１,139.693303,35.606311,2600407
5693,2600408,2600206,大岡山,おおおかやま,お,26004,大田区北千束３-２７-１,139.685909,35.607456,2600408
5694,2600409,2600409,緑が丘,みどりがおか,み,26004,目黒区緑が丘３-１-１２,139.679482,35.60638,2600409
5695,2600410,2600107,自由が丘,じゆうがおか,じ,26004,目黒区自由が丘１-３０-１,139.668664,35.607224,2600410
5696,2600411,2600411,九品仏,くほんぶつ,く,26004,世田谷区奥沢７-２０-１,139.660992,35.60538,2600411
5697,2600412,2600412,尾山台,おやまだい,お,26004,世田谷区等々力５-５-７,139.653862,35.606971,2600412
5698,2600413,2600413,等々力,とどろき,と,26004,世田谷区等々力３-１-１,139.647938,35.608369,2600413
5699,2600414,2600414,上野毛,かみのげ,か,26004,世田谷区上野毛１-２６-６,139.638917,35.611957,2600414
5700,2600415,2600307,二子玉川,にこたまがわ,に,26004,世田谷区玉川２-２２-１３,139.626685,35.611788,2600415
5704,2600501,1130202,五反田,ごたんだ,ご,26005,東京都品川区東五反田二丁目1-1,139.724175,35.625262,2600501
5705,2600502,2600502,大崎広小路,おおさきひろこうじ,お,26005,品川区大崎４-１-１,139.722339,35.622244,2600502
5706,2600503,2600503,戸越銀座,とごしぎんざ,と,26005,品川区平塚２-１６-１,139.714862,35.615928,2600503
5707,2600504,2600504,荏原中延,えばらなかのぶ,え,26005,品川区中延２-８-１,139.712196,35.610056,2600504
5708,2600505,2600406,旗の台,はたのだい,は,26005,品川区旗の台２-１３-１,139.702286,35.604923,2600505
5709,2600506,2600506,長原,ながはら,な,26005,大田区上池台１-１０-１０,139.697881,35.60219,2600506
5710,2600507,2600507,洗足池,せんぞくいけ,せ,26005,大田区東雪谷１-１-６,139.690896,35.599648,2600507
5711,2600508,2600508,石川台,いしかわだい,い,26005,大田区東雪谷２-２３-１,139.685063,35.596888,2600508
5712,2600509,2600509,雪が谷大塚,ゆきがやおおつか,ゆ,26005,大田区南雪谷２-２-１６,139.681083,35.592038,2600509
5713,2600510,2600510,御嶽山,おんたけさん,お,26005,大田区北嶺町３２-１７,139.682473,35.585236,2600510
5714,2600511,2600511,久が原,くがはら,く,26005,大田区南久が原２-６-１０,139.685678,35.579499,2600511
5715,2600512,2600512,千鳥町,ちどりちょう,ち,26005,大田区千鳥１-２０-１,139.69142,35.572983,2600512
5716,2600513,2600513,池上,いけがみ,い,26005,大田区池上６-３-１０,139.702822,35.572025,2600513
5717,2600514,2600514,蓮沼,はすぬま,は,26005,大田区西蒲田７-１７-１,139.708544,35.564173,2600514
5718,2600515,1133230,蒲田,かまた,か,26005,大田区蒲田５丁目,139.714626,35.561767,2600515
5719,2600601,2600109,多摩川,たまがわ,た,26006,大田区田園調布１-５３-８,139.668723,35.589591,2600601
5720,2600602,2600602,沼部,ぬまべ,ぬ,26006,大田区田園調布本町２８-１,139.67326,35.582526,2600602
5721,2600603,2600603,鵜の木,うのき,う,26006,大田区鵜の木２-４-１,139.680554,35.575452,2600603
5722,2600604,2600604,下丸子,しもまるこ,し,26006,大田区下丸子３-７-１,139.685576,35.571397,2600604
5723,2600605,2600605,武蔵新田,むさしにった,む,26006,大田区矢口１-１８-１,139.692506,35.567806,2600605
5724,2600606,2600606,矢口渡,やぐちのわたし,や,26006,大田区多摩川１-２０-１５,139.700389,35.562462,2600606
5725,2600607,1133230,蒲田,かまた,か,26006,大田区蒲田５丁目,139.714626,35.561767,2600607
5726,2600701,2600303,三軒茶屋,さんげんぢゃや,さ,26007,世田谷区太子堂４-２１-１,139.670156,35.643716,2600701
5727,2600702,2600702,西太子堂,にしたいしどう,に,26007,世田谷区太子堂４-１０-３,139.666382,35.644545,2600702
5728,2600703,2600703,若林,わかばやし,わ,26007,世田谷区若林４-３-１５,139.659911,35.645933,2600703
5729,2600704,2600704,松陰神社前,しょういんじんじゃまえ,し,26007,世田谷区若林４-２１-１６,139.655211,35.643947,2600704
5730,2600705,2600705,世田谷,せたがや,せ,26007,世田谷区世田谷４-９-６,139.650945,35.643564,2600705
5731,2600706,2600706,上町,かみまち,か,26007,世田谷区世田谷３-４-３,139.646276,35.643656,2600706
5732,2600707,2600707,宮の坂,みやのさか,み,26007,世田谷区宮坂１-２４-７,139.64494,35.647508,2600707
5733,2600708,2500110,山下,やました,や,26007,世田谷区豪徳寺１-４４-５,139.646509,35.653844,2600708
5734,2600709,2600709,松原,まつばら,ま,26007,世田谷区松原４-１０-８,139.642,35.660048,2600709
5735,2600710,2400107,下高井戸,しもたかいど,し,26007,世田谷区松原３-２９-１７,139.641372,35.66615,2600710
5739,2700101,2700101,泉岳寺,せんがくじ,せ,27001,港区高輪２-１６-３４,139.74002,35.638692,2700101
5740,2700102,1130103,品川,しながわ,し,27001,東京都港区高輪三丁目26-26,139.73809,35.628284,2700102
5741,2700103,2700103,北品川,きたしながわ,き,27001,品川区北品川１-１-４,139.739191,35.622458,2700103
5742,2700104,2700104,新馬場,しんばんば,し,27001,品川区北品川２-１８-１,139.741366,35.61762,2700104
5743,2700105,2700105,青物横丁,あおものよこちょう,あ,27001,品川区南品川３-１-２０,139.742958,35.609351,2700105
5744,2700106,2700106,鮫洲,さめず,さ,27001,品川区東大井１-２-２０,139.742227,35.604977,2700106
5745,2700107,2700107,立会川,たちあいがわ,た,27001,品川区東大井２-２３-１,139.738886,35.598489,2700107
5746,2700108,2700108,大森海岸,おおもりかいがん,お,27001,品川区南大井３-３２-１,139.73544,35.587576,2700108
5747,2700109,2700109,平和島,へいわじま,へ,27001,大田区大森北６-１３-１１,139.73491,35.57868,2700109
5748,2700110,2700110,大森町,おおもりまち,お,27001,大田区大森西３-２４-７,139.732027,35.572431,2700110
5749,2700111,2700111,梅屋敷,うめやしき,う,27001,大田区蒲田２-２８-１,139.728266,35.566873,2700111
5750,2700112,2700112,京急蒲田,けいきゅうかまた,け,27001,大田区蒲田４-５０-１０,139.723681,35.560796,2700112
5751,2700113,2700113,雑色,ぞうしき,ぞ,27001,大田区仲六郷２-４２-１,139.715005,35.549725,2700113
5752,2700114,2700114,六郷土手,ろくごうどて,ろ,27001,大田区仲六郷４-２７-１１,139.7076,35.540577,2700114
5789,2700201,2700112,京急蒲田,けいきゅうかまた,け,27002,大田区蒲田４-５０-１０,139.723681,35.560796,2700201
5790,2700202,2700202,糀谷,こうじや,こ,27002,大田区西糀谷４-１３-１７,139.72962,35.5545,2700202
5791,2700203,2700203,大鳥居,おおとりい,お,27002,大田区西糀谷３-３７-１８,139.739356,35.552531,2700203
5792,2700204,2700204,穴守稲荷,あなもりいなり,あ,27002,大田区羽田４-６-１１,139.746669,35.550326,2700204
5793,2700205,2700205,天空橋,てんくうばし,て,27002,大田区羽田空港１-１-２,139.75423,35.548908,2700205
5794,2700207,2700207,羽田空港国際線ターミナル,はねだくうこうこくさいせんたーみなる,は,27002,東京都大田区羽田空港二丁目6番5号,139.768968,35.544676,2700205
5795,2700206,2700206,羽田空港国内線ターミナル,はねだくうこうこくないせんたーみなる,は,27002,大田区羽田空港３-３-４,139.785962,35.549809,2700206
5816,2800101,2100201,浅草,あさくさ,あ,28001,東京都台東区浅草一丁目1-3,139.797592,35.710733,2800101
5817,2800102,2800102,田原町,たわらまち,た,28001,台東区西浅草１-１-１８,139.790897,35.709897,2800102
5818,2800103,2800103,稲荷町,いなりちょう,い,28001,台東区東上野３-３３-１１,139.782593,35.711273,2800103
5819,2800104,1130220,上野,うえの,う,28001,東京都台東区東上野三丁目19-6,139.777122,35.711482,2800104
5820,2800105,1130221,上野広小路,うえのひろこうじ,う,28001,台東区上野３-２９-３,139.772877,35.70768,2800105
5821,2800106,2800106,末広町,すえひろちょう,す,28001,千代田区外神田４-７-３,139.771713,35.702972,2800106
5822,2800107,1130223,神田,かんだ,か,28001,東京都千代田区神田須田町一丁目16,139.770899,35.693587,2800107
5823,2800108,1131402,三越前,みつこしまえ,み,28001,中央区日本橋室町１-８-１,139.773594,35.687101,2800108
5824,2800109,2800109,日本橋,にほんばし,に,28001,中央区日本橋１丁目,139.773516,35.682078,2800109
5825,2800110,2800110,京橋,きょうばし,き,28001,中央区京橋２-２-１０,139.770126,35.676856,2800110
5826,2800111,2800111,銀座,ぎんざ,ぎ,28001,中央区銀座４-１-２,139.763965,35.671989,2800111
5827,2800112,1130102,新橋,しんばし,し,28001,東京都港区新橋二丁目17-5,139.758432,35.667434,2800112
5828,2800113,2800113,虎ノ門,とらのもん,と,28001,港区虎ノ門１-１-２１,139.749832,35.670236,2800113
5829,2800114,2800114,溜池山王,ためいけさんのう,た,28001,千代田区永田町２-１１-１,139.741419,35.673621,2800114
5830,2800115,2800115,赤坂見附,あかさかみつけ,あ,28001,港区赤坂３-１-６,139.737047,35.677021,2800115
5831,2800116,2800116,青山一丁目,あおやまいっちょうめ,あ,28001,港区南青山１-１-１９,139.724159,35.672765,2800116
5832,2800117,2800117,外苑前,がいえんまえ,が,28001,港区北青山２-７-１６,139.717857,35.670527,2800117
5833,2800118,2800118,表参道,おもてさんどう,お,28001,港区北青山３丁目,139.712314,35.665247,2800118
5834,2800119,1130205,渋谷,しぶや,し,28001,東京都渋谷区道玄坂一丁目1-1,139.701,35.659066,2800119
5835,2800201,1130212,池袋,いけぶくろ,い,28002,東京都豊島区南池袋一丁目28-1,139.711086,35.730256,2800201
5836,2800202,2800202,新大塚,しんおおつか,し,28002,文京区大塚４-５１-５,139.729971,35.72569,2800202
5837,2800203,2800203,茗荷谷,みょうがだに,み,28002,文京区小日向４-６-１５,139.737184,35.716989,2800203
5838,2800204,2800204,後楽園,こうらくえん,こ,28002,文京区春日１-２-３,139.751864,35.707898,2800204
5839,2800205,2800205,本郷三丁目,ほんごうさんちょうめ,ほ,28002,文京区本郷２-３９-１,139.759914,35.706671,2800205
5840,2800206,1131203,御茶ノ水,おちゃのみず,お,28002,千代田区神田駿河台２丁目,139.763952,35.700614,2800206
5841,2800207,2800207,淡路町,あわじちょう,あ,28002,千代田区神田淡路町１-２,139.767575,35.695434,2800207
5842,2800208,2800208,大手町,おおてまち,お,28002,千代田区大手町１丁目,139.7662,35.686564,2800208
5843,2800209,1130101,東京,とうきょう,と,28002,東京都千代田区丸の内一丁目,139.764708,35.681753,2800209
5844,2800210,2800111,銀座,ぎんざ,ぎ,28002,中央区銀座４-１-２,139.763965,35.671989,2800210
5845,2800211,2800211,霞ケ関,かすみがせき,か,28002,千代田区霞が関２丁目,139.750899,35.673838,2800211
5846,2800212,2800212,国会議事堂前,こっかいぎじどうまえ,こ,28002,千代田区永田町１丁目,139.745219,35.67393,2800212
5847,2800213,2800115,赤坂見附,あかさかみつけ,あ,28002,港区赤坂３-１-６,139.737047,35.677021,2800213
5848,2800214,1131102,四ツ谷,よつや,よ,28002,新宿区四谷１丁目,139.729947,35.684586,2800214
5849,2800215,2800215,四谷三丁目,よつやさんちょうめ,よ,28002,新宿区四谷３-８,139.720103,35.687958,2800215
5850,2800216,2800216,新宿御苑前,しんじゅくぎょえんまえ,し,28002,新宿区新宿１-８-１,139.71069,35.688588,2800216
5851,2800217,2800217,新宿三丁目,しんじゅくさんちょうめ,し,28002,新宿区新宿３-１４-１,139.704895,35.690847,2800217
5852,2800218,1130208,新宿,しんじゅく,し,28002,東京都新宿区西新宿一丁目 西口地下街1号,139.700711,35.69235,2800218
5853,2800219,2800219,西新宿,にししんじゅく,に,28002,新宿区西新宿６-７-５１,139.692778,35.694298,2800219
5854,2800220,2800220,中野坂上,なかのさかうえ,な,28002,中野区中央２-１-２,139.68291,35.69792,2800220
5855,2800221,2800221,新中野,しんなかの,し,28002,中野区中央４-２-１５,139.66903,35.697491,2800221
5856,2800222,2800222,東高円寺,ひがしこうえんじ,ひ,28002,杉並区和田３-５５-４２,139.657822,35.697802,2800222
5857,2800223,2800223,新高円寺,しんこうえんじ,し,28002,杉並区高円寺南２-２０-１,139.648068,35.697985,2800223
5858,2800224,2800224,南阿佐ケ谷,みなみあさがや,み,28002,杉並区阿佐谷南１-１５-７,139.63576,35.699624,2800224
5859,2800225,1131217,荻窪,おぎくぼ,お,28002,杉並区上荻１丁目,139.620116,35.704304,2800225
5860,2800226,2800226,中野新橋,なかのしんばし,な,28002,中野区弥生町２-２６-８,139.673997,35.692123,2800226
5861,2800227,2800227,中野富士見町,なかのふじみちょう,な,28002,中野区弥生町５-２４-４,139.666933,35.690514,2800227
5862,2800228,2800228,方南町,ほうなんちょう,ほ,28002,杉並区堀ノ内１-１-１,139.656498,35.683496,2800228
5863,2800301,1132005,北千住,きたせんじゅ,き,28003,足立区千住旭町,139.804276,35.748916,2800301
5864,2800302,1132004,南千住,みなみせんじゅ,み,28003,荒川区南千住４丁目,139.799273,35.733398,2800302
5865,2800303,2800303,三ノ輪,みのわ,み,28003,台東区三ノ輪２-１４-７,139.791485,35.729623,2800303
5866,2800304,2800304,入谷,いりや,い,28003,台東区入谷１-６-４,139.783924,35.719862,2800304
5867,2800305,1130220,上野,うえの,う,28003,東京都台東区東上野三丁目19-6,139.777122,35.711482,2800305
5868,2800306,1130221,仲御徒町,なかおかちまち,な,28003,台東区上野５-２４-１２,139.776138,35.706649,2800306
5869,2800307,1130222,秋葉原,あきはばら,あ,28003,東京都千代田区神田佐久間町一丁目21,139.775459,35.698162,2800307
5870,2800308,2800308,小伝馬町,こでんまちょう,こ,28003,中央区日本橋小伝馬町１１-１,139.778433,35.690737,2800308
5871,2800309,2800309,人形町,にんぎょうちょう,に,28003,中央区日本橋人形町２-６-５,139.782285,35.686307,2800309
5872,2800310,2800310,茅場町,かやばちょう,か,28003,中央区日本橋茅場町１-４-６,139.780005,35.679752,2800310
5873,2800311,1132602,八丁堀,はっちょうぼり,は,28003,中央区八丁堀３丁目,139.776982,35.674851,2800311
5874,2800312,2800312,築地,つきじ,つ,28003,中央区築地３-１５-１,139.772603,35.668115,2800312
5875,2800313,2800313,東銀座,ひがしぎんざ,ひ,28003,中央区銀座４-１２-１５,139.767253,35.669464,2800313
5876,2800314,2800111,銀座,ぎんざ,ぎ,28003,中央区銀座４-１-２,139.763965,35.671989,2800314
5877,2800315,2800315,日比谷,ひびや,ひ,28003,千代田区有楽町１丁目,139.76017,35.67459,2800315
5878,2800316,2800211,霞ケ関,かすみがせき,か,28003,千代田区霞が関２丁目,139.750899,35.673838,2800316
5879,2800317,2800317,神谷町,かみやちょう,か,28003,港区虎ノ門５-１２-１１,139.745069,35.662978,2800317
5880,2800318,2800318,六本木,ろっぽんぎ,ろ,28003,港区六本木６-１-２５,139.731443,35.662836,2800318
5881,2800319,2800319,広尾,ひろお,ひ,28003,港区南麻布５-１０-２８,139.722202,35.652279,2800319
5882,2800320,1130204,恵比寿,えびす,え,28003,東京都渋谷区恵比寿南一丁目5-5,139.708988,35.647332,2800320
5883,2800321,2600103,中目黒,なかめぐろ,な,28003,目黒区上目黒３-４-１,139.698621,35.643854,2800321
5884,2800401,1131214,中野,なかの,な,28004,中野区中野５丁目,139.665835,35.705765,2800401
5885,2800402,2800402,落合,おちあい,お,28004,新宿区上落合２-１３-７,139.687284,35.710976,2800402
5886,2800403,1130210,高田馬場,たかだのばば,た,28004,東京都新宿区高田馬場一丁目35-1,139.704745,35.713338,2800403
5887,2800404,2800404,早稲田,わせだ,わ,28004,東京都新宿区早稲田南町12,139.721319,35.705723,2800404
5888,2800405,2800405,神楽坂,かぐらざか,か,28004,新宿区矢来町１１２,139.734546,35.70379,2800405
5889,2800406,1131316,飯田橋,いいだばし,い,28004,東京都千代田区飯田橋四丁目10-3,139.745986,35.701725,2800406
5890,2800407,2800407,九段下,くだんした,く,28004,千代田区九段南１-６-１,139.751948,35.695589,2800407
5891,2800408,2800408,竹橋,たけばし,た,28004,千代田区一ツ橋１-１-１,139.756817,35.690662,2800408
5892,2800409,2800208,大手町,おおてまち,お,28004,千代田区大手町１丁目,139.766086,35.684801,2800409
5893,2800410,2800109,日本橋,にほんばし,に,28004,中央区日本橋１丁目,139.773516,35.682078,2800410
5894,2800411,2800310,茅場町,かやばちょう,か,28004,中央区日本橋茅場町１-４-６,139.780005,35.679752,2800411
5895,2800412,2800412,門前仲町,もんぜんなかちょう,も,28004,江東区門前仲町１丁目,139.796209,35.671851,2800412
5896,2800413,2800413,木場,きば,き,28004,江東区木場５-５-１,139.807042,35.669351,2800413
5897,2800414,2800414,東陽町,とうようちょう,と,28004,江東区東陽４-２-１,139.817596,35.669629,2800414
5898,2800415,2800415,南砂町,みなみすなまち,み,28004,江東区南砂３-１１-８５,139.83065,35.668796,2800415
5899,2800416,2800416,西葛西,にしかさい,に,28004,江戸川区西葛西６-１４-１,139.859259,35.664631,2800416
5900,2800417,2800417,葛西,かさい,か,28004,江戸川区中葛西５-４３-１１,139.872458,35.663554,2800417
5907,2800501,2800501,北綾瀬,きたあやせ,き,28005,足立区谷中２丁目,139.832035,35.777117,2800501
5908,2800502,1132006,綾瀬,あやせ,あ,28005,足立区綾瀬３丁目,139.825019,35.762222,2800502
5909,2800503,1132005,北千住,きたせんじゅ,き,28005,足立区千住旭町,139.804276,35.748916,2800503
5910,2800504,2300104,町屋,まちや,ま,28005,荒川区町屋１丁目,139.780501,35.742733,2800504
5911,2800505,1130217,西日暮里,にしにっぽり,に,28005,東京都荒川区西日暮里五丁目14-1,139.766511,35.732257,2800505
5912,2800506,2800506,千駄木,せんだぎ,せ,28005,文京区千駄木２丁目,139.763243,35.725549,2800506
5913,2800507,2800507,根津,ねづ,ね,28005,文京区根津１丁目,139.765655,35.7174,2800507
5914,2800508,2800508,湯島,ゆしま,ゆ,28005,文京区湯島３丁目,139.769916,35.708243,2800508
5915,2800509,1131203,新御茶ノ水,しんおちゃのみず,し,28005,千代田区神田駿河台３丁目,139.766014,35.698072,2800509
5916,2800510,2800208,大手町,おおてまち,お,28005,千代田区大手町１丁目,139.763399,35.686154,2800510
5917,2800511,2800511,二重橋前,にじゅうばしまえ,に,28005,千代田区丸の内２丁目,139.761948,35.681071,2800511
5918,2800512,2800315,日比谷,ひびや,ひ,28005,千代田区有楽町１丁目,139.758732,35.674241,2800512
5919,2800513,2800211,霞ケ関,かすみがせき,か,28005,千代田区霞が関２丁目,139.750899,35.673838,2800513
5920,2800514,2800212,国会議事堂前,こっかいぎじどうまえ,こ,28005,千代田区永田町１丁目,139.745219,35.67393,2800514
5921,2800515,2800515,赤坂,あかさか,あ,28005,港区赤坂５丁目,139.738348,35.67323,2800515
5922,2800516,2800516,乃木坂,のぎざか,の,28005,港区南青山１丁目,139.726215,35.666572,2800516
5923,2800517,2800118,表参道,おもてさんどう,お,28005,港区北青山３丁目,139.712314,35.665247,2800517
5924,2800518,1130206,明治神宮前〈原宿〉,めいじじんぐうまえ,め,28005,渋谷区神宮前１丁目,139.703995,35.669071,2800518
5925,2800519,2500104,代々木公園,よよぎこうえん,よ,28005,渋谷区富ケ谷１丁目,139.689099,35.669187,2800519
5926,2800520,2500105,代々木上原,よよぎうえはら,よ,28005,渋谷区西原３丁目,139.680153,35.669159,2800520
5928,2800602,2100110,地下鉄成増,ちかてつなります,ち,28006,東京都板橋区成増二丁目11-3,139.631497,35.776557,2800602
5929,2800603,2100109,地下鉄赤塚,ちかてつあかつか,ち,28006,東京都練馬区北町八丁目37-16,139.644021,35.769939,2800603
5930,2800604,2800604,平和台,へいわだい,へ,28006,東京都練馬区早宮2-17-48,139.653762,35.757863,2800604
5931,2800605,2800605,氷川台,ひかわだい,ひ,28006,東京都練馬区氷川台三丁目38-18,139.665567,35.74955,2800605
5932,2800606,2200301,小竹向原,こたけむかいはら,こ,28006,東京都練馬区小竹町二丁目16-15,139.678572,35.743803,2800606
5933,2800607,2800607,千川,せんかわ,せ,28006,東京都豊島区要町三丁目10-7,139.689271,35.738229,2800607
5934,2800608,2800608,要町,かなめちょう,か,28006,東京都豊島区要町一丁目1-10,139.698715,35.73323,2800608
5935,2800609,1130212,池袋,いけぶくろ,い,28006,東京都豊島区西池袋三丁目28-14,139.710088,35.729565,2800609
5936,2800610,2800610,東池袋,ひがしいけぶくろ,ひ,28006,東京都豊島区東池袋四丁目4-4,139.719546,35.725732,2800610
5937,2800611,2800611,護国寺,ごこくじ,ご,28006,東京都文京区大塚五丁目40-8,139.72754,35.719044,2800611
5938,2800612,2800612,江戸川橋,えどがわばし,え,28006,東京都文京区関口一丁目19-6,139.733538,35.709495,2800612
5939,2800613,1131316,飯田橋,いいだばし,い,28006,東京都新宿区神楽坂一丁目13,139.743669,35.701934,2800613
5940,2800614,1131315,市ケ谷,いちがや,い,28006,東京都新宿区市谷田町一丁目1,139.73647,35.691958,2800614
5941,2800615,2800615,麹町,こうじまち,こ,28006,東京都千代田区麹町三丁目2,139.737613,35.684006,2800615
5942,2800616,2800115,永田町,ながたちょう,な,28006,東京都千代田区永田町一丁目11-28,139.740258,35.678757,2800616
5943,2800617,2800617,桜田門,さくらだもん,さ,28006,東京都千代田区霞が関二丁目1-1,139.75149,35.677405,2800617
5944,2800618,1130225,有楽町,ゆうらくちょう,ゆ,28006,東京都千代田区有楽町一丁目11-1,139.763265,35.675714,2800618
5945,2800619,2800619,銀座一丁目,ぎんざいっちょうめ,ぎ,28006,東京都中央区銀座一丁目7-12,139.767045,35.67435,2800619
5946,2800620,2800620,新富町,しんとみちょう,し,28006,東京都中央区築地一丁目1-1,139.773711,35.670462,2800620
5947,2800621,2800621,月島,つきしま,つ,28006,東京都中央区月島一丁目3-9,139.784233,35.664871,2800621
5948,2800622,2800622,豊洲,とよす,と,28006,東京都江東区豊洲四丁目1-1,139.79621,35.654908,2800622
5949,2800623,2800623,辰巳,たつみ,た,28006,東京都江東区辰巳一丁目1-44,139.81052,35.645576,2800623
5950,2800624,1132605,新木場,しんきば,し,28006,東京都江東区新木場一丁目6,139.826254,35.645832,2800624
5951,2800801,1130205,渋谷,しぶや,し,28008,東京都渋谷区道玄坂二丁目1-1,139.701,35.659066,2800801
5952,2800802,2800118,表参道,おもてさんどう,お,28008,港区北青山３丁目,139.712314,35.665247,2800802
5953,2800803,2800116,青山一丁目,あおやまいっちょうめ,あ,28008,港区南青山１-１-１９,139.724159,35.672765,2800803
5954,2800804,2800115,永田町,ながたちょう,な,28008,東京都千代田区永田町一丁目11-29,139.740258,35.678757,2800804
5955,2800805,2800805,半蔵門,はんぞうもん,は,28008,千代田区麹町１-６,139.74163,35.685703,2800805
5956,2800806,2800407,九段下,くだんした,く,28008,千代田区九段南１-６-１,139.751948,35.695589,2800806
5957,2800807,2800807,神保町,じんぼうちょう,じ,28008,千代田区神田神保町２-２,139.757606,35.695966,2800807
5958,2800808,2800208,大手町,おおてまち,お,28008,千代田区大手町１丁目,139.764107,35.68686,2800808
5959,2800809,1131402,三越前,みつこしまえ,み,28008,中央区日本橋室町１-８-１,139.773147,35.684908,2800809
5960,2800810,2800810,水天宮前,すいてんぐうまえ,す,28008,中央区日本橋蛎殻町２-１-１,139.785377,35.682683,2800810
5961,2800811,2800811,清澄白河,きよすみしらかわ,き,28008,江東区白河１-７-１４,139.798851,35.682105,2800811
5962,2800814,2800814,住吉,すみよし,す,28008,江東区住吉２-２３-１２,139.815681,35.689073,2800811
5963,2800812,1131322,錦糸町,きんしちょう,き,28008,墨田区江東橋３丁目,139.814941,35.697578,2800812
5964,2800813,2100203,押上〈スカイツリー前〉,おしあげ すかいつりーまえ,お,28008,墨田区押上一丁目,139.812935,35.710702,2800813
5965,2800901,2800901,赤羽岩淵,あかばねいわぶち,あ,28009,北区赤羽１-５２-８,139.722103,35.783417,2800901
5966,2800902,2800902,志茂,しも,し,28009,北区志茂２-１-１８,139.732599,35.777948,2800902
5967,2800903,2800903,王子神谷,おうじかみや,お,28009,北区王子５-２-１１,139.735933,35.765172,2800903
5968,2800904,1133212,王子,おうじ,お,28009,北区王子１丁目,139.737618,35.753966,2800904
5969,2800905,2800905,西ケ原,にしがはら,に,28009,東京都北区西ヶ原二丁目3-8,139.742322,35.746008,2800905
5970,2800906,1130215,駒込,こまごめ,こ,28009,東京都豊島区駒込二丁目,139.746442,35.736959,2800906
5971,2800907,2800907,本駒込,ほんこまごめ,ほ,28009,文京区向丘２-３７-１,139.753828,35.724155,2800907
5972,2800908,2800908,東大前,とうだいまえ,と,28009,文京区向丘１-１９-２,139.758025,35.717633,2800908
5973,2800909,2800204,後楽園,こうらくえん,こ,28009,文京区春日１-２-３,139.751864,35.707898,2800909
5974,2800910,1131316,飯田橋,いいだばし,い,28009,東京都新宿区神楽坂一丁目13,139.743669,35.701934,2800910
5975,2800911,1131315,市ケ谷,いちがや,い,28009,東京都千代田区五番町2-1,139.736642,35.691295,2800911
5976,2800912,1131102,四ツ谷,よつや,よ,28009,新宿区四谷１丁目,139.72955,35.686032,2800912
5977,2800913,2800115,永田町,ながたちょう,な,28009,東京都千代田区永田町一丁目11-28,139.740258,35.678757,2800913
5978,2800914,2800114,溜池山王,ためいけさんのう,た,28009,千代田区永田町２-１１-１,139.741419,35.673621,2800914
5979,2800915,2800915,六本木一丁目,ろっぽんぎいっちょうめ,ろ,28009,港区六本木１-４-１,139.739,35.665595,2800915
5980,2800916,2800916,麻布十番,あざぶじゅうばん,あ,28009,港区麻布十番４-４-９,139.737051,35.654682,2800916
5981,2800917,2800917,白金高輪,しろかねたかなわ,し,28009,港区高輪１-３-２０,139.734104,35.642903,2800917
5982,2800918,2800918,白金台,しろかねだい,し,28009,港区白金台３-２,139.726133,35.637917,2800918
5983,2800919,1130203,目黒,めぐろ,め,28009,東京都品川区上大崎四丁目2-1,139.7155,35.633272,2800919
5985,2801002,2100110,地下鉄成増,ちかてつなります,ち,28010,東京都板橋区成増二丁目11-3,139.631497,35.776557,2801002
5986,2801003,2100109,地下鉄赤塚,ちかてつあかつか,ち,28010,東京都練馬区北町八丁目37-16,139.644021,35.769939,2801003
5987,2801004,2800604,平和台,へいわだい,へ,28010,東京都練馬区早宮2-17-48,139.653762,35.757863,2801004
5988,2801005,2800605,氷川台,ひかわだい,ひ,28010,東京都練馬区氷川台三丁目38-18,139.665567,35.74955,2801005
5989,2801006,2200301,小竹向原,こたけむかいはら,こ,28010,東京都練馬区小竹町二丁目16-15,139.678572,35.743803,2801006
5990,2801007,2800607,千川,せんかわ,せ,28010,東京都豊島区要町三丁目10-7,139.689271,35.738229,2801007
5991,2801008,2800608,要町,かなめちょう,か,28010,東京都豊島区要町一丁目1-10,139.698715,35.73323,2801008
5992,2801009,1130212,池袋,いけぶくろ,い,28010,東京都豊島区南池袋一丁目28-1,139.708291,35.731464,2801009
5993,2801010,2801010,雑司が谷,ぞうしがや,ぞ,28010,豊島区雑司が谷二丁目,139.714795,35.720233,2801010
5994,2801011,2801011,西早稲田,にしわせだ,に,28010,新宿区西早稲田二丁目,139.709101,35.708242,2801011
5995,2801012,2801012,東新宿,ひがししんじゅく,ひ,28010,新宿区新宿７-２７-３,139.707593,35.698915,2801012
5996,2801013,2800217,新宿三丁目,しんじゅくさんちょうめ,し,28010,新宿区新宿３-１４-１,139.704828,35.690853,2801013
5997,2801014,2801014,北参道,きたさんどう,き,28010,渋谷区千駄ヶ谷４丁目,139.705453,35.678459,2801014
5998,2801015,1130206,明治神宮前〈原宿〉,めいじじんぐうまえ,め,28010,渋谷区神宮前１丁目,139.705367,35.668497,2801015
5999,2801016,1130205,渋谷,しぶや,し,28010,東京都渋谷区道玄坂二丁目1-1,139.702417,35.659545,2801016
7575,9930101,9930101,都庁前,とちょうまえ,と,99301,新宿区西新宿２-８-１,139.69257,35.690551,9930101
7576,9930102,9930102,新宿西口,しんじゅくにしぐち,し,99301,新宿区西新宿１-３-１７,139.699155,35.693315,9930102
7577,9930103,2801012,東新宿,ひがししんじゅく,ひ,99301,新宿区新宿７-２７-３,139.707549,35.69792,9930103
7578,9930104,9930104,若松河田,わかまつかわだ,わ,99301,新宿区河田町１０-１０,139.718184,35.699218,9930104
7579,9930105,9930105,牛込柳町,うしごめやなぎちょう,う,99301,新宿区原町２-３２,139.725027,35.699518,9930105
7580,9930106,9930106,牛込神楽坂,うしごめかぐらざか,う,99301,新宿区箪笥町１５,139.735802,35.700851,9930106
7581,9930107,1131316,飯田橋,いいだばし,い,99301,東京都文京区後楽一丁目9-5,139.744999,35.702927,9930107
7582,9930108,9930108,春日,かすが,か,99301,文京区春日１-１６-１７,139.75325,35.709598,9930108
7583,9930109,2800205,本郷三丁目,ほんごうさんちょうめ,ほ,99301,文京区本郷２-３９-１,139.760095,35.707462,9930109
7584,9930110,1130221,上野御徒町,うえのおかちまち,う,99301,台東区上野５-２６-６,139.774332,35.707893,9930110
7585,9930111,9930111,新御徒町,しんおかちまち,し,99301,台東区元浅草１-５-２,139.781958,35.707045,9930111
7586,9930112,9930112,蔵前,くらまえ,く,99301,台東区蔵前２-３-１,139.790931,35.703236,9930112
7587,9930113,1131321,両国,りょうごく,り,99301,墨田区横網１丁目,139.797421,35.696881,9930113
7588,9930114,9930114,森下,もりした,も,99301,江東区森下２-１７-１７,139.797042,35.68796,9930114
7589,9930115,2800811,清澄白河,きよすみしらかわ,き,99301,江東区白河１-７-１４,139.798851,35.682105,9930115
7590,9930116,2800412,門前仲町,もんぜんなかちょう,も,99301,江東区門前仲町１丁目,139.796209,35.671851,9930116
7591,9930117,2800621,月島,つきしま,つ,99301,東京都中央区月島一丁目3-9,139.784233,35.664871,9930117
7592,9930118,9930118,勝どき,かちどき,か,99301,中央区勝どき２-１０-１５,139.776442,35.658507,9930118
7593,9930119,9930119,築地市場,つきじしじょう,つ,99301,中央区築地５-１-２,139.766915,35.664895,9930119
7594,9930120,9930120,汐留,しおどめ,し,99301,港区東新橋１丁目５,139.760642,35.663703,9930120
7595,9930121,9930121,大門,だいもん,だ,99301,港区浜松町１-２７-１２,139.75466,35.656785,9930121
7596,9930122,9930122,赤羽橋,あかばねばし,あ,99301,港区東麻布１-２８-１３,139.743642,35.655007,9930122
7597,9930123,2800916,麻布十番,あざぶじゅうばん,あ,99301,港区麻布十番４-４-９,139.736116,35.656503,9930123
7598,9930124,2800318,六本木,ろっぽんぎ,ろ,99301,港区六本木６-１-２５,139.731567,35.663921,9930124
7599,9930125,2800116,青山一丁目,あおやまいっちょうめ,あ,99301,港区南青山１-１-１９,139.72396,35.672929,9930125
7600,9930126,9930126,国立競技場,こくりつきょうぎじょう,こ,99301,新宿区霞ケ丘町１０-３,139.714932,35.679831,9930126
7601,9930127,1130207,代々木,よよぎ,よ,99301,東京都渋谷区代々木一丁目35-5,139.701666,35.683218,9930127
7602,9930128,1130208,新宿,しんじゅく,し,99301,東京都渋谷区代々木二丁目1-1,139.698812,35.68869,9930128
7603,9930129,9930129,西新宿五丁目,にししんじゅくごちょうめ,に,99301,新宿区西新宿５-２５-９,139.684304,35.689798,9930129
7604,9930130,2800220,中野坂上,なかのさかうえ,な,99301,中野区中央２-１-２,139.682279,35.69709,9930130
7605,9930131,1131308,東中野,ひがしなかの,ひ,99301,中野区東中野４丁目,139.682987,35.706891,9930131
7606,9930132,2200704,中井,なかい,な,99301,新宿区中落合１-１９-１,139.686356,35.714035,9930132
7607,9930133,9930133,落合南長崎,おちあいみなみながさき,お,99301,新宿区西落合３-１-１８,139.683303,35.723608,9930133
7608,9930134,9930134,新江古田,しんえごた,し,99301,中野区江原町２-２９-１３,139.670653,35.732538,9930134
7609,9930135,2200106,練馬,ねりま,ね,99301,練馬区練馬１-３-５,139.65477,35.737404,9930135
7610,9930136,2200402,豊島園,としまえん,と,99301,練馬区練馬４-１６-５,139.64911,35.742067,9930136
7611,9930137,9930137,練馬春日町,ねりまかすがちょう,ね,99301,練馬区春日町３-２９-２５,139.640236,35.751452,9930137
7612,9930138,9930138,光が丘,ひかりがおか,ひ,99301,練馬区光が丘２-９-５,139.628603,35.758526,9930138
7613,9930201,9930201,西馬込,にしまごめ,に,99302,大田区西馬込２-１-６,139.705942,35.586859,9930201
7614,9930202,9930202,馬込,まごめ,ま,99302,大田区北馬込２-３１-９,139.711772,35.596435,9930202
7615,9930203,2600404,中延,なかのぶ,な,99302,品川区中延４-５-５,139.713736,35.605769,9930203
7616,9930204,2600503,戸越,とごし,と,99302,品川区戸越３-４-１７,139.716495,35.614633,9930204
7617,9930205,1130202,五反田,ごたんだ,ご,99302,東京都品川区東五反田一丁目26-14,139.724175,35.627102,9930205
7618,9930206,9930206,高輪台,たかなわだい,た,99302,港区白金台２-２６-７,139.730305,35.631679,9930206
7619,9930207,2700101,泉岳寺,せんがくじ,せ,99302,港区高輪２-１６-３４,139.74002,35.638692,9930207
7620,9930208,9930208,三田,みた,み,99302,港区芝５-３４-１０,139.748775,35.64818,9930208
7621,9930209,9930121,大門,だいもん,だ,99302,港区浜松町１-２７-１２,139.75466,35.656785,9930209
7622,9930210,1130102,新橋,しんばし,し,99302,東京都港区新橋二丁目21-1,139.759451,35.665577,9930210
7623,9930211,2800313,東銀座,ひがしぎんざ,ひ,99302,中央区銀座４-１２-１５,139.767253,35.669464,9930211
7624,9930212,2800110,宝町,たからちょう,た,99302,中央区京橋２-１３-１１,139.771767,35.675461,9930212
7625,9930213,2800109,日本橋,にほんばし,に,99302,中央区日本橋１丁目,139.775721,35.681688,9930213
7626,9930214,2800309,人形町,にんぎょうちょう,に,99302,中央区日本橋人形町２-６-５,139.782285,35.686307,9930214
7627,9930215,1131403,東日本橋,ひがしにほんばし,ひ,99302,中央区東日本橋３-１１-８,139.784821,35.692126,9930215
7628,9930216,1131320,浅草橋,あさくさばし,あ,99302,台東区浅草橋１丁目,139.786305,35.697451,9930216
7629,9930217,9930112,蔵前,くらまえ,く,99302,台東区蔵前２-３-１,139.790931,35.703236,9930217
7630,9930218,2100201,浅草,あさくさ,あ,99302,東京都台東区駒形一丁目12-14,139.79697,35.709461,9930218
7631,9930219,9930219,本所吾妻橋,ほんじょあづまばし,ほ,99302,墨田区吾妻橋３-７-１６,139.804624,35.70858,9930219
7632,9930220,2100203,押上（スカイツリー前）,おしあげ すかいつりーまえ,お,99302,墨田区押上一丁目,139.812935,35.710702,9930220
7633,9930301,1130203,目黒,めぐろ,め,99303,東京都品川区上大崎四丁目2-1,139.7155,35.633272,9930301
7634,9930302,2800918,白金台,しろかねだい,し,99303,港区白金台３-２,139.726133,35.637917,9930302
7635,9930303,2800917,白金高輪,しろかねたかなわ,し,99303,港区高輪１-３-２０,139.734104,35.642903,9930303
7636,9930304,9930208,三田,みた,み,99303,港区芝５-３４-１０,139.748775,35.64818,9930304
7637,9930305,9930305,芝公園,しばこうえん,し,99303,港区芝公園４-８-１４,139.749824,35.654074,9930305
7638,9930306,9930306,御成門,おなりもん,お,99303,港区西新橋３-２４-６,139.751535,35.661215,9930306
7639,9930307,9930307,内幸町,うちさいわいちょう,う,99303,千代田区内幸町２-２-３,139.75561,35.66975,9930307
7640,9930308,2800315,日比谷,ひびや,ひ,99303,千代田区有楽町１丁目,139.759998,35.676036,9930308
7641,9930309,2800208,大手町,おおてまち,お,99303,千代田区大手町１丁目,139.762959,35.684856,9930309
7642,9930310,2800807,神保町,じんぼうちょう,じ,99303,千代田区神田神保町２-２,139.75812,35.695492,9930310
7643,9930311,1131317,水道橋,すいどうばし,す,99303,千代田区三崎町２丁目,139.75516,35.703398,9930311
7644,9930312,9930108,春日,かすが,か,99303,文京区春日１-１６-１７,139.75325,35.709598,9930312
7645,9930313,9930313,白山,はくさん,は,99303,文京区白山５-３６-１０,139.752136,35.721408,9930313
7646,9930314,9930314,千石,せんごく,せ,99303,文京区千石１-２９-１３,139.744792,35.727957,9930314
7647,9930315,1130214,巣鴨,すがも,す,99303,東京都豊島区巣鴨三丁目27-7,139.738519,35.733502,9930315
7648,9930316,9930316,西巣鴨,にしすがも,に,99303,豊島区西巣鴨３-２５-１３,139.728712,35.743508,9930316
7649,9930317,9930317,新板橋,しんいたばし,し,99303,板橋区板橋１-５３-１７,139.720101,35.748785,9930317
7650,9930318,9930318,板橋区役所前,いたばしくやくしょまえ,い,99303,板橋区板橋２-６６-１７,139.710102,35.751284,9930318
7651,9930319,9930319,板橋本町,いたばしほんちょう,い,99303,板橋区大和町１７-１,139.705535,35.761339,9930319
7652,9930320,9930320,本蓮沼,もとはすぬま,も,99303,板橋区蓮沼町１９-８,139.702324,35.768782,9930320
7653,9930321,9930321,志村坂上,しむらさかうえ,し,99303,板橋区志村１-１４-１３,139.69538,35.775725,9930321
7654,9930322,9930322,志村三丁目,しむらさんちょうめ,し,99303,板橋区志村３-２３-１,139.685937,35.777391,9930322
7655,9930323,9930323,蓮根,はすね,は,99303,板橋区蓮根２-３１-３０,139.678993,35.784335,9930323
7656,9930324,9930324,西台,にしだい,に,99303,板橋区高島平９-１-１,139.673971,35.78699,9930324
7657,9930325,9930325,高島平,たかしまだいら,た,99303,板橋区高島平８-２-１,139.661216,35.789056,9930325
7658,9930326,9930326,新高島平,しんたかしまだいら,し,99303,板橋区高島平７-１,139.654275,35.790189,9930326
7659,9930327,9930327,西高島平,にしたかしまだいら,に,99303,板橋区高島平６-１,139.64594,35.791833,9930327
7660,9930401,1130208,新宿,しんじゅく,し,99304,東京都新宿区西新宿一丁目18,139.698812,35.68869,9930401
7661,9930402,2800217,新宿三丁目,しんじゅくさんちょうめ,し,99304,新宿区新宿３-１４-１,139.706271,35.690616,9930402
7662,9930403,9930403,曙橋,あけぼのばし,あ,99304,新宿区住吉町７-１,139.722881,35.692402,9930403
7663,9930404,1131315,市ヶ谷,いちがや,い,99304,東京都新宿区市谷田町一丁目1,139.735794,35.692594,9930404
7664,9930405,2800407,九段下,くだんした,く,99304,千代田区九段南１-６-１,139.751948,35.695589,9930405
7665,9930406,2800807,神保町,じんぼうちょう,じ,99304,千代田区神田神保町２-２,139.757606,35.695966,9930406
7666,9930407,2800207,小川町,おがわまち,お,99304,千代田区神田小川町１-６,139.767551,35.695487,9930407
7667,9930408,9930408,岩本町,いわもとちょう,い,99304,千代田区神田岩本町１,139.775866,35.695534,9930408
7668,9930409,1131403,馬喰横山,ばくろよこやま,ば,99304,中央区日本橋横山町４-１３,139.782768,35.69212,9930409
7669,9930410,9930410,浜町,はまちょう,は,99304,中央区日本橋浜町２-５９-３,139.788154,35.688516,9930410
7670,9930411,9930114,森下,もりした,も,99304,江東区森下２-１７-１７,139.797042,35.68796,9930411
7671,9930412,9930412,菊川,きくかわ,き,99304,墨田区菊川３-１６-２,139.806016,35.688379,9930412
7672,9930413,2800814,住吉,すみよし,す,99304,江東区住吉２-２３-１２,139.815681,35.689073,9930413
7673,9930414,9930414,西大島,にしおおじま,に,99304,江東区大島２-４１-１９,139.826206,35.689349,9930414
7674,9930415,9930415,大島,おおじまえき,お,99304,江東区大島５-１０-８,139.83565,35.689905,9930415
7675,9930416,9930416,東大島,ひがしおおじま,ひ,99304,江東区大島９-３-１４,139.845963,35.690355,9930416
7676,9930417,9930417,船堀,ふなぼり,ふ,99304,江戸川区船堀３-６-１,139.864258,35.683795,9930417
7677,9930418,9930418,一之江,いちのえ,い,99304,江戸川区春江町４-２,139.882934,35.686055,9930418
7678,9930419,9930419,瑞江,みずえ,み,99304,江戸川区瑞江２-２-１,139.89761,35.693318,9930419
7679,9930420,9930420,篠崎,しのざき,し,99304,江戸川区篠崎町７-２７-１,139.903698,35.706017,9930420
7681,9930501,9930501,三ノ輪橋,みのわばし,み,99305,荒川区南千住１,139.791412,35.732248,9930501
7682,9930502,9930502,荒川一中前,あらかわいっちゅうまえ,あ,99305,荒川区南千住１-１,139.788988,35.733659,9930502
7683,9930503,9930503,荒川区役所前,あらかわくやくしょまえ,あ,99305,荒川区荒川１,139.786456,35.73493,9930503
7684,9930504,9930504,荒川二丁目,あらかわにちょうめ,あ,99305,荒川区荒川２,139.784696,35.738623,9930504
7685,9930505,9930505,荒川七丁目,あらかわななちょうめ,あ,99305,荒川区荒川７,139.78417,35.741975,9930505
7686,9930506,2300104,町屋駅前,まちやえきまえ,ま,99305,荒川区荒川７,139.781145,35.74275,9930506
7687,9930507,9930507,町屋二丁目,まちやにちょうめ,ま,99305,荒川区荒川６,139.776625,35.743837,9930507
7688,9930508,9930508,東尾久三丁目,ひがしおぐさんちょうめ,ひ,99305,荒川区東尾久３,139.774386,35.745398,9930508
7689,9930509,9930509,熊野前,くまのまえ,く,99305,荒川区東尾久５,139.769204,35.749212,9930509
7690,9930510,9930510,宮ノ前,みやのまえ,み,99305,荒川区東尾久５,139.764955,35.750135,9930510
7691,9930511,9930511,小台,おだい,お,99305,荒川区西尾久５,139.761779,35.750579,9930511
7692,9930512,9930512,荒川遊園地前,あらかわゆうえんちまえ,あ,99305,荒川区西尾久５,139.757767,35.750744,9930512
7693,9930513,9930513,荒川車庫前,あらかわしゃこまえ,あ,99305,荒川区西尾久７,139.752617,35.750909,9930513
7694,9930514,9930514,梶原,かじわら,か,99305,北区堀船３,139.747403,35.751162,9930514
7695,9930515,9930515,栄町,さかえまち,さ,99305,北区栄町,139.742124,35.750909,9930515
7696,9930516,1133212,王子駅前,おうじえきまえ,お,99305,北区王子１,139.737661,35.753199,9930516
7697,9930517,9930517,飛鳥山,あすかやま,あ,99305,北区滝野川１,139.737382,35.750248,9930517
7698,9930518,9930518,滝野川一丁目,たきのがわいっちょうめ,た,99305,北区滝野川１,139.735376,35.747374,9930518
7699,9930519,9930519,西ヶ原四丁目,にしがはらよんちょうめ,に,99305,東京都北区西ヶ原四丁目,139.732779,35.744501,9930519
7700,9930520,9930520,新庚申塚,しんこうしんづか,し,99305,豊島区西巣鴨４,139.730451,35.741348,9930520
7701,9930521,9930521,庚申塚,こうしんづか,こ,99305,豊島区西巣鴨３,139.729743,35.739563,9930521
7702,9930522,9930522,巣鴨新田,すがもしんでん,す,99305,豊島区西巣鴨１,139.727769,35.735488,9930522
7703,9930523,1130213,大塚駅前,おおつかえきまえ,お,99305,豊島区南大塚３,139.729593,35.732082,9930523
7704,9930524,9930524,向原,むこうはら,む,99305,豊島区南大塚３,139.724894,35.728938,9930524
7705,9930525,2800610,東池袋四丁目,ひがしいけぶくろよんちょうめ,ひ,99305,豊島区東池袋５,139.720012,35.72528,9930525
7706,9930526,9930526,都電雑司ヶ谷,とでんぞうしがや,と,99305,東京都豊島区南池袋,139.718006,35.724261,9930526
7707,9930527,2801010,鬼子母神前,きしぼじんまえ,き,99305,豊島区雑司が谷２,139.714916,35.720403,9930527
7708,9930528,9930528,学習院下,がくしゅういんした,が,99305,豊島区高田２,139.71247,35.716248,9930528
7709,9930529,9930529,面影橋,おもかげばし,お,99305,新宿区西早稲田３,139.714444,35.712981,9930529
7710,9930530,9930530,早稲田,わせだ,わ,99305,東京都新宿区西早稲田一丁目,139.718928,35.711848,9930530
7747,9930701,2800901,赤羽岩淵,あかばねいわぶち,あ,99307,北区赤羽１-５２-８,139.722103,35.783417,9930701
7769,9930901,1130222,秋葉原,あきはばら,あ,99309,東京都千代田区神田佐久間町一丁目6-10,139.774273,35.698889,9930901
7770,9930902,9930111,新御徒町,しんおかちまち,し,99309,台東区元浅草１-５-２,139.781958,35.707045,9930902
7771,9930903,9930903,浅草,あさくさ,あ,99309,東京都台東区西浅草三丁目1-11,139.792389,35.713817,9930903
7772,9930904,1132004,南千住,みなみせんじゅ,み,99309,荒川区南千住４丁目,139.798783,35.732413,9930904
7773,9930905,1132005,北千住,きたせんじゅ,き,99309,足立区千住旭町,139.805092,35.74949,9930905
7774,9930906,9930906,青井,あおい,あ,99309,足立区青井三丁目,139.82038,35.771782,9930906
7775,9930907,9930907,六町,ろくちょう,ろ,99309,足立区六町四丁目,139.821816,35.784963,9930907
7795,9931101,1130102,新橋,しんばし,し,99311,東京都港区東新橋一丁目5-13,139.759644,35.665503,9931101
7796,9931102,9930120,汐留,しおどめ,し,99311,港区東新橋１丁目５,139.759985,35.662871,9931102
7797,9931103,9931103,竹芝,たけしば,た,99311,港区海岸１-１３-１０,139.762037,35.654099,9931103
7798,9931104,9931104,日の出,ひので,ひ,99311,港区海岸２-７-６８,139.75906,35.649136,9931104
7799,9931105,9931105,芝浦ふ頭,しばうらふとう,し,99311,港区海岸３-２２-１２,139.757852,35.641773,9931105
7800,9931106,9931106,お台場海浜公園,おだいばかいひんこうえん,お,99311,港区台場２-３,139.778607,35.629813,9931106
7801,9931107,9931107,台場,だいば,だ,99311,港区台場２-６,139.771435,35.625908,9931107
7802,9931108,9931108,船の科学館,ふねのかがくかん,ふ,99311,江東区青海１,139.773157,35.621462,9931108
7803,9931109,9931109,テレコムセンター,テレコムセンター,て,99311,江東区青海２-２９,139.779327,35.617593,9931109
7804,9931110,9931110,青海,あおみ,あ,99311,江東区青海１,139.781132,35.62467,9931110
7805,9931111,9931111,国際展示場正門,こくさいてんじじょうせいもん,こ,99311,江東区有明３-１,139.791228,35.630158,9931111
7806,9931112,9931112,有明,ありあけ,あ,99311,江東区有明２-５,139.793269,35.634596,9931112
7807,9931113,9931113,有明テニスの森,ありあけてにすのもり,あ,99311,江東区有明１丁目,139.78888,35.639964,9931113
7808,9931114,9931114,市場前,しじょうまえ,し,99311,江東区豊洲６丁目,139.78564,35.645684,9931114
7809,9931115,9931115,新豊洲,しんとよす,し,99311,江東区豊洲６丁目,139.789996,35.648718,9931115
7810,9931116,2800622,豊洲,とよす,と,99311,東京都江東区豊洲二丁目2,139.795414,35.653792,9931116
8158,9933601,1130227,浜松町,はままつちょう,は,99336,東京都港区浜松町二丁目4-12,139.756747,35.655666,9933601
8159,9933602,9933602,天王洲アイル,てんのうずあいる,て,99336,品川区東品川２-５-１９,139.750675,35.622908,9933602
8160,9933603,9933603,大井競馬場前,おおいけいばじょうまえ,お,99336,品川区勝島２-２-３５,139.74708,35.595006,9933603
8161,9933604,9933604,流通センター,りゅうつうせんたー,り,99336,大田区平和島６-１-２,139.748964,35.58186,9933604
8162,9933605,9933605,昭和島,しょうわじま,し,99336,大田区昭和島２-２-１,139.749918,35.570656,9933605
8163,9933606,9933606,整備場,せいびじょう,せ,99336,大田区羽田空港１-７-４,139.753366,35.555125,9933606
8164,9933607,2700205,天空橋,てんくうばし,て,99336,大田区羽田空港１-１-２,139.75423,35.548908,9933607
8165,9933611,2700207,羽田空港国際線ビル,はねだくうこうこくさいせんびる,は,99336,東京都大田区羽田空港二丁目6-5,139.768206,35.544169,9933607
8166,9933608,9933608,新整備場,しんせいびじょう,し,99336,大田区羽田空港３-５-１,139.786777,35.542773,9933608
8167,9933609,2700206,羽田空港第１ビル,はねだくうこうだいいちびる,は,99336,大田区羽田空港３-３-２,139.784653,35.549163,9933609
8168,9933610,2700206,羽田空港第２ビル,はねだくうこうだいにびる,は,99336,大田区羽田空港３-４-２,139.787979,35.550734,9933610
8169,9933701,1132605,新木場,しんきば,し,99337,東京都江東区新木場一丁目6,139.827402,35.646172,9933701
8170,9933702,9933702,東雲,しののめ,し,99337,江東区東雲２-８-１０,139.804395,35.640987,9933702
8171,9933703,9933703,国際展示場,こくさいてんじじょう,こ,99337,江東区有明２-５-２５,139.791617,35.63441,9933703
8172,9933704,9933704,東京テレポート,とうきょうてれぽーと,と,99337,江東区青海１-２,139.778896,35.62753,9933704
8173,9933705,9933602,天王洲アイル,てんのうずあいる,て,99337,品川区東品川２-５-１９,139.750793,35.620562,9933705
8174,9933706,9933706,品川シーサイド,しながわしーさいど,し,99337,品川区東品川４-１２-２２,139.749549,35.608524,9933706
8175,9933707,1133228,大井町,おおいまち,お,99337,品川区大井１丁目,139.735025,35.607535,9933707
8176,9933708,1130201,大崎,おおさき,お,99337,東京都品川区大崎一丁目21-4,139.728439,35.619772,9933708
8197,9934001,2300110,京成高砂,けいせいたかさご,け,99340,東京都葛飾区高砂五丁目28-1,139.866875,35.750932,9934001
8198,9934002,9934002,新柴又,しんしばまた,し,99340,葛飾区柴又５-７-１,139.879376,35.75101,9934002
8221,9934201,1130218,日暮里,にっぽり,に,99342,東京都荒川区西日暮里二丁目19-1,139.771287,35.727908,9934201
8222,9934202,1130217,西日暮里,にしにっぽり,に,99342,東京都荒川区西日暮里五丁目31-7,139.766857,35.731954,9934202
8223,9934203,9934203,赤土小学校前,あかどしょうがっこうまえ,あ,99342,荒川区東尾久４-７-７,139.768989,35.742454,9934203
8224,9934204,9930509,熊野前,くまのまえ,く,99342,荒川区東尾久５,139.769695,35.748972,9934204
8225,9934205,9934205,足立小台,あだちおだい,あ,99342,足立区小台１-２０-１,139.770381,35.754658,9934205
8226,9934206,9934206,扇大橋,おうぎおおはし,お,99342,足立区扇２-２５-７,139.770808,35.763897,9934206
8227,9934207,9934207,高野,こうや,こ,99342,足立区扇２-４５-１,139.770679,35.768359,9934207
8228,9934208,9934208,江北,こうほく,こ,99342,足立区江北４-３０-２７,139.770306,35.774021,9934208
8229,9934209,9934209,西新井大師西,にしあらいだいにし,に,99342,足立区江北６-３０-２３,139.770094,35.781505,9934209
8230,9934210,9934210,谷在家,やざいけ,や,99342,足立区谷在家３-２０-２３,139.770043,35.788774,9934210
8231,9934211,9934211,舎人公園,とねりこうえん,と,99342,足立区舎人公園１-１０,139.770183,35.79623,9934211
8232,9934212,9934212,舎人,とねり,と,99342,足立区舎人１-１６-１５,139.770108,35.8057,9934212
8233,9934213,9934213,見沼代親水公園,みぬまだいしんすいこうえん,み,99342,足立区舎人２-２１-１３,139.770719,35.814544,9934213